{
"type": "FeatureCollection",
"name": "woodstorckgeojson",
"crs": { "type": "name", "properties": { "name": "urn:ogc:def:crs:EPSG::3857" } },
"features": [
{ "type": "Feature", "properties": { "OBJECTID": 1, "COUNTY": "Columbia", "FORAGBUF": "13 miles", "ATLASNUM": "593301", "NAME": "Ox Pond", "LATY": 30.176667, "LONGX": -82.723333, "LASTACTIVE": 2019, "CNT2019": "a", "CNT2018": "no survey", "CNT2017": "no survey", "CNT2016": null, "CNT2015": null, "CNT2014": "0", "CNT2013": null, "CNT2012": null, "CNT2011": null, "CNT2010": "0", "STATE": "FL" }, "geometry": { "type": "Point", "coordinates": [ -9208719.702314855530858, 3526279.745537635870278 ] } },
{ "type": "Feature", "properties": { "OBJECTID": 2, "COUNTY": "Dade", "FORAGBUF": "18.6 miles", "ATLASNUM": "620031", "NAME": "L-28 Gap", "LATY": 25.967, "LONGX": -80.85, "LASTACTIVE": 2010, "CNT2019": null, "CNT2018": null, "CNT2017": null, "CNT2016": null, "CNT2015": null, "CNT2014": null, "CNT2013": null, "CNT2012": null, "CNT2011": null, "CNT2010": "A", "STATE": "FL" }, "geometry": { "type": "Point", "coordinates": [ -9000181.150962742045522, 2994994.910501772072166 ] } },
{ "type": "Feature", "properties": { "OBJECTID": 3, "COUNTY": "Dade", "FORAGBUF": "18.6 miles", "ATLASNUM": "0", "NAME": "Tamiami Trail East2", "LATY": 25.75935, "LONGX": -80.52457, "LASTACTIVE": 2010, "CNT2019": null, "CNT2018": null, "CNT2017": null, "CNT2016": "0", "CNT2015": "0", "CNT2014": "0", "CNT2013": "0", "CNT2012": null, "CNT2011": null, "CNT2010": "30", "STATE": "FL" }, "geometry": { "type": "Point", "coordinates": [ -8963954.437867909669876, 2969306.388511328026652 ] } },
{ "type": "Feature", "properties": { "OBJECTID": 4, "COUNTY": "Lake", "FORAGBUF": "15 miles", "ATLASNUM": "0", "NAME": "Mud Lake OLD", "LATY": 28.967, "LONGX": -81.383, "LASTACTIVE": 2010, "CNT2019": null, "CNT2018": null, "CNT2017": null, "CNT2016": null, "CNT2015": null, "CNT2014": null, "CNT2013": null, "CNT2012": null, "CNT2011": null, "CNT2010": "Active", "STATE": "FL" }, "geometry": { "type": "Point", "coordinates": [ -9059514.467082371935248, 3371447.237387400120497 ] } },
{ "type": "Feature", "properties": { "OBJECTID": 5, "COUNTY": "Leon", "FORAGBUF": "13 miles", "ATLASNUM": "592003", "NAME": "Ochlocknee River Airport", "LATY": 30.542367, "LONGX": -84.380517, "LASTACTIVE": 2010, "CNT2019": "0", "CNT2018": "0", "CNT2017": "0", "CNT2016": "0", "CNT2015": "0", "CNT2014": "0", "CNT2013": "0", "CNT2012": "0", "CNT2011": "0", "CNT2010": "3", "STATE": "FL" }, "geometry": { "type": "Point", "coordinates": [ -9393196.636129582300782, 3573459.058012007270008 ] } },
{ "type": "Feature", "properties": { "OBJECTID": 6, "COUNTY": "Madison", "FORAGBUF": "13 miles", "ATLASNUM": "593304", "NAME": "Little Aucilla - Spray", "LATY": 30.51, "LONGX": -83.608333, "LASTACTIVE": 2010, "CNT2019": null, "CNT2018": null, "CNT2017": null, "CNT2016": null, "CNT2015": null, "CNT2014": null, "CNT2013": null, "CNT2012": null, "CNT2011": null, "CNT2010": "30", "STATE": "FL" }, "geometry": { "type": "Point", "coordinates": [ -9307237.481621660292149, 3569276.229571819771081 ] } },
{ "type": "Feature", "properties": { "OBJECTID": 7, "COUNTY": "Brevard", "FORAGBUF": "15 miles", "ATLASNUM": "616004", "NAME": "Grant Farm Island BC46", "LATY": 27.916667, "LONGX": -80.515, "LASTACTIVE": 2011, "CNT2019": "0", "CNT2018": "0", "CNT2017": "0", "CNT2016": "0", "CNT2015": null, "CNT2014": "0", "CNT2013": "0", "CNT2012": "0", "CNT2011": "81", "CNT2010": "0", "STATE": "FL" }, "geometry": { "type": "Point", "coordinates": [ -8962889.116915091872215, 3238472.118317983113229 ] } },
{ "type": "Feature", "properties": { "OBJECTID": 8, "COUNTY": "Broward", "FORAGBUF": "18.6 miles", "ATLASNUM": "0", "NAME": "Kinich", "LATY": 26.0425, "LONGX": -80.50308, "LASTACTIVE": 2011, "CNT2019": null, "CNT2018": null, "CNT2017": null, "CNT2016": null, "CNT2015": null, "CNT2014": null, "CNT2013": null, "CNT2012": null, "CNT2011": "120", "CNT2010": null, "STATE": "FL" }, "geometry": { "type": "Point", "coordinates": [ -8961562.182131597772241, 3004346.291494120843709 ] } },
{ "type": "Feature", "properties": { "OBJECTID": 9, "COUNTY": "Lee", "FORAGBUF": "18.6 miles", "ATLASNUM": "619040", "NAME": "Caloosahatchee River East", "LATY": 26.696582, "LONGX": -81.79495, "LASTACTIVE": 2011, "CNT2019": null, "CNT2018": null, "CNT2017": null, "CNT2016": null, "CNT2015": null, "CNT2014": "0", "CNT2013": "0", "CNT2012": "0", "CNT2011": "8", "CNT2010": "25", "STATE": "FL" }, "geometry": { "type": "Point", "coordinates": [ -9105372.536564962938428, 3085615.162430893629789 ] } },
{ "type": "Feature", "properties": { "OBJECTID": 10, "COUNTY": "Brevard", "FORAGBUF": "15 miles", "ATLASNUM": "0", "NAME": "Micco North BC51", "LATY": 27.882879, "LONGX": -80.49575, "LASTACTIVE": 2012, "CNT2019": "0", "CNT2018": "0", "CNT2017": "0", "CNT2016": "0", "CNT2015": "0", "CNT2014": "0", "CNT2013": "0", "CNT2012": "113", "CNT2011": "94", "CNT2010": "0", "STATE": "FL" }, "geometry": { "type": "Point", "coordinates": [ -8960746.215945674106479, 3234216.175377743784338 ] } },
{ "type": "Feature", "properties": { "OBJECTID": 11, "COUNTY": "Charlotte", "FORAGBUF": "18.6 miles", "ATLASNUM": "0", "NAME": "Morganton South", "LATY": 27.013333, "LONGX": -81.978333, "LASTACTIVE": 2012, "CNT2019": "0", "CNT2018": "0", "CNT2017": "0", "CNT2016": "0", "CNT2015": "0", "CNT2014": "0", "CNT2013": "0", "CNT2012": "300", "CNT2011": null, "CNT2010": null, "STATE": "FL" }, "geometry": { "type": "Point", "coordinates": [ -9125786.645601071417332, 3125138.249293498694897 ] } },
{ "type": "Feature", "properties": { "OBJECTID": 12, "COUNTY": "Collier", "FORAGBUF": "18.6 miles", "ATLASNUM": "0", "NAME": "Collier - Hendry", "LATY": 26.370383, "LONGX": -81.272717, "LASTACTIVE": 2012, "CNT2019": null, "CNT2018": null, "CNT2017": "0", "CNT2016": null, "CNT2015": null, "CNT2014": "0", "CNT2013": "0", "CNT2012": "27", "CNT2011": "0", "CNT2010": null, "STATE": "FL" }, "geometry": { "type": "Point", "coordinates": [ -9047237.807079197838902, 3045027.852207162417471 ] } },
{ "type": "Feature", "properties": { "OBJECTID": 13, "COUNTY": "Sarasota", "FORAGBUF": "18.6 miles", "ATLASNUM": "615301", "NAME": "Casey Key Sorrento Inlet", "LATY": 27.151516, "LONGX": -82.475067, "LASTACTIVE": 2012, "CNT2019": null, "CNT2018": "0", "CNT2017": "0", "CNT2016": "0", "CNT2015": null, "CNT2014": "0", "CNT2013": "0", "CNT2012": "95", "CNT2011": null, "CNT2010": "10", "STATE": "FL" }, "geometry": { "type": "Point", "coordinates": [ -9181082.838044540956616, 3142415.080608480609953 ] } },
{ "type": "Feature", "properties": { "OBJECTID": 14, "COUNTY": "Dade", "FORAGBUF": "18.6 miles", "ATLASNUM": "0", "NAME": "Lower Taylor Slough", "LATY": 25.22697, "LONGX": -80.68428, "LASTACTIVE": 2013, "CNT2019": null, "CNT2018": null, "CNT2017": null, "CNT2016": null, "CNT2015": null, "CNT2014": "0", "CNT2013": "50", "CNT2012": null, "CNT2011": null, "CNT2010": null, "STATE": "FL" }, "geometry": { "type": "Point", "coordinates": [ -8981733.277445651590824, 2903649.186435819137841 ] } },
{ "type": "Feature", "properties": { "OBJECTID": 15, "COUNTY": "Dade", "FORAGBUF": "18.6 miles", "ATLASNUM": "0", "NAME": "Rookery Branch", "LATY": 25.46356, "LONGX": -80.85256, "LASTACTIVE": 2013, "CNT2019": null, "CNT2018": "0", "CNT2017": "0", "CNT2016": "0", "CNT2015": "0", "CNT2014": "0", "CNT2013": "150", "CNT2012": "0", "CNT2011": "25", "CNT2010": "0", "STATE": "FL" }, "geometry": { "type": "Point", "coordinates": [ -9000466.127531079575419, 2932791.392529385630041 ] } },
{ "type": "Feature", "properties": { "OBJECTID": 16, "COUNTY": "Dade", "FORAGBUF": "18.6 miles", "ATLASNUM": "620312", "NAME": "Tamiami Trail East1", "LATY": 25.75762, "LONGX": -80.50801, "LASTACTIVE": 2013, "CNT2019": null, "CNT2018": null, "CNT2017": null, "CNT2016": "0", "CNT2015": "0", "CNT2014": "0", "CNT2013": "5", "CNT2012": null, "CNT2011": null, "CNT2010": "15", "STATE": "FL" }, "geometry": { "type": "Point", "coordinates": [ -8962110.986487248912454, 2969092.558224670123309 ] } },
{ "type": "Feature", "properties": { "OBJECTID": 17, "COUNTY": "Osceola", "FORAGBUF": "18.6 miles", "ATLASNUM": "612042", "NAME": "Lake Conlin", "LATY": 28.236446, "LONGX": -81.102737, "LASTACTIVE": 2013, "CNT2019": null, "CNT2018": null, "CNT2017": null, "CNT2016": null, "CNT2015": null, "CNT2014": null, "CNT2013": "40", "CNT2012": null, "CNT2011": null, "CNT2010": "0", "STATE": "FL" }, "geometry": { "type": "Point", "coordinates": [ -9028315.72068702429533, 3278817.725802759639919 ] } },
{ "type": "Feature", "properties": { "OBJECTID": 18, "COUNTY": "Pasco", "FORAGBUF": "15 miles", "ATLASNUM": "611024", "NAME": "Little Gator Creek", "LATY": 28.296112, "LONGX": -82.062381, "LASTACTIVE": 2019, "CNT2019": "2", "CNT2018": null, "CNT2017": null, "CNT2016": null, "CNT2015": null, "CNT2014": "0", "CNT2013": "Active", "CNT2012": "Active", "CNT2011": "Active", "CNT2010": "Active, 0", "STATE": "FL" }, "geometry": { "type": "Point", "coordinates": [ -9135142.833488715812564, 3286358.95928297098726 ] } },
{ "type": "Feature", "properties": { "OBJECTID": 19, "COUNTY": "Sarasota", "FORAGBUF": "18.6 miles", "ATLASNUM": "615303", "NAME": "Blackburn Bay", "LATY": 27.141215, "LONGX": -82.471863, "LASTACTIVE": 2013, "CNT2019": "0", "CNT2018": "0", "CNT2017": "0", "CNT2016": "0, 0", "CNT2015": "0, 0", "CNT2014": "0", "CNT2013": "105, 56", "CNT2012": "15 / 80", "CNT2011": "147", "CNT2010": "0, 210", "STATE": "FL" }, "geometry": { "type": "Point", "coordinates": [ -9180726.170270262286067, 3141126.425016157794744 ] } },
{ "type": "Feature", "properties": { "OBJECTID": 20, "COUNTY": "Brevard", "FORAGBUF": "15 miles", "ATLASNUM": "0", "NAME": "Micco South BC52", "LATY": 27.877113, "LONGX": -80.492661, "LASTACTIVE": 2014, "CNT2019": "0", "CNT2018": "0", "CNT2017": "0", "CNT2016": "0", "CNT2015": "0", "CNT2014": "15", "CNT2013": "0", "CNT2012": "0", "CNT2011": null, "CNT2010": "15", "STATE": "FL" }, "geometry": { "type": "Point", "coordinates": [ -8960402.349902624264359, 3233490.021486620418727 ] } },
{ "type": "Feature", "properties": { "OBJECTID": 21, "COUNTY": "Columbia", "FORAGBUF": "13 miles", "ATLASNUM": "0", "NAME": "Watertown", "LATY": 30.200088, "LONGX": -82.571583, "LASTACTIVE": 2014, "CNT2019": null, "CNT2018": "no survey", "CNT2017": "no survey", "CNT2016": "no survey", "CNT2015": "0", "CNT2014": "Active", "CNT2013": "Active", "CNT2012": "Active", "CNT2011": null, "CNT2010": null, "STATE": "FL" }, "geometry": { "type": "Point", "coordinates": [ -9191826.964903831481934, 3529296.040006499737501 ] } },
{ "type": "Feature", "properties": { "OBJECTID": 22, "COUNTY": "Monroe", "FORAGBUF": "18.6 miles", "ATLASNUM": "0", "NAME": "Lostmans Creek", "LATY": 25.58723, "LONGX": -80.97204, "LASTACTIVE": 2014, "CNT2019": null, "CNT2018": "0", "CNT2017": "0", "CNT2016": "0", "CNT2015": "0", "CNT2014": "40", "CNT2013": "200", "CNT2012": "50", "CNT2011": null, "CNT2010": "0", "STATE": "FL" }, "geometry": { "type": "Point", "coordinates": [ -9013766.584414733573794, 2948047.348684556782246 ] } },
{ "type": "Feature", "properties": { "OBJECTID": 23, "COUNTY": "Monroe", "FORAGBUF": "18.6 miles", "ATLASNUM": "0", "NAME": "Rodgers River Bay Peninsula", "LATY": 25.55975, "LONGX": -81.07026, "LASTACTIVE": 2014, "CNT2019": null, "CNT2018": "0", "CNT2017": null, "CNT2016": "0", "CNT2015": "0", "CNT2014": "110", "CNT2013": "200", "CNT2012": "135", "CNT2011": "80", "CNT2010": "165", "STATE": "FL" }, "geometry": { "type": "Point", "coordinates": [ -9024700.38792179711163, 2944656.050438681151718 ] } },
{ "type": "Feature", "properties": { "OBJECTID": 24, "COUNTY": "Palm Beach", "FORAGBUF": "18.6 miles", "ATLASNUM": "0", "NAME": "Lox NC-4", "LATY": 26.5328, "LONGX": -80.2762, "LASTACTIVE": 2014, "CNT2019": null, "CNT2018": null, "CNT2017": null, "CNT2016": null, "CNT2015": null, "CNT2014": "15", "CNT2013": null, "CNT2012": null, "CNT2011": null, "CNT2010": null, "STATE": "FL" }, "geometry": { "type": "Point", "coordinates": [ -8936306.010162387043238, 3065222.169112917035818 ] } },
{ "type": "Feature", "properties": { "OBJECTID": 25, "COUNTY": "St. Lucie", "FORAGBUF": "18.6 miles", "ATLASNUM": "616151", "NAME": "North Fork St. Lucie River", "LATY": 27.265984, "LONGX": -80.326452, "LASTACTIVE": 2014, "CNT2019": null, "CNT2018": null, "CNT2017": "0", "CNT2016": "0", "CNT2015": "0", "CNT2014": "10", "CNT2013": "0", "CNT2012": "120", "CNT2011": null, "CNT2010": "0", "STATE": "FL" }, "geometry": { "type": "Point", "coordinates": [ -8941900.041250813752413, 3156743.052262458950281 ] } },
{ "type": "Feature", "properties": { "OBJECTID": 26, "COUNTY": "Brevard", "FORAGBUF": "15 miles", "ATLASNUM": "0", "NAME": "Kemper Ranch", "LATY": 28.088333, "LONGX": -80.85, "LASTACTIVE": 2015, "CNT2019": "0", "CNT2018": "0", "CNT2017": "0", "CNT2016": "0", "CNT2015": "50", "CNT2014": "50", "CNT2013": "12", "CNT2012": "16", "CNT2011": "3", "CNT2010": "0", "STATE": "FL" }, "geometry": { "type": "Point", "coordinates": [ -9000181.157901873812079, 3260115.793669527862221 ] } },
{ "type": "Feature", "properties": { "OBJECTID": 27, "COUNTY": "Columbia", "FORAGBUF": "13 miles", "ATLASNUM": "593101", "NAME": "Falling Creek Falls", "LATY": 30.25, "LONGX": -82.665, "LASTACTIVE": 2015, "CNT2019": null, "CNT2018": "no survey", "CNT2017": null, "CNT2016": null, "CNT2015": "Active", "CNT2014": "0", "CNT2013": null, "CNT2012": "Active", "CNT2011": "Active", "CNT2010": "50", "STATE": "FL" }, "geometry": { "type": "Point", "coordinates": [ -9202226.101020896807313, 3535726.395827810280025 ] } },
{ "type": "Feature", "properties": { "OBJECTID": 28, "COUNTY": "Dade", "FORAGBUF": "18.6 miles", "ATLASNUM": "620139", "NAME": "Cuthbert Lake", "LATY": 25.20933, "LONGX": -80.775, "LASTACTIVE": 2015, "CNT2019": null, "CNT2018": "0", "CNT2017": "0", "CNT2016": "0", "CNT2015": "30", "CNT2014": "130", "CNT2013": "150", "CNT2012": "60", "CNT2011": "90", "CNT2010": "35", "STATE": "FL" }, "geometry": { "type": "Point", "coordinates": [ -8991832.184590781107545, 2901478.639632168225944 ] } },
{ "type": "Feature", "properties": { "OBJECTID": 29, "COUNTY": "Brevard", "FORAGBUF": "15 miles", "ATLASNUM": "612138", "NAME": "US 192 East", "LATY": 28.091667, "LONGX": -80.816667, "LASTACTIVE": 2016, "CNT2019": null, "CNT2018": "0", "CNT2017": "0", "CNT2016": "23", "CNT2015": "0", "CNT2014": null, "CNT2013": null, "CNT2012": null, "CNT2011": null, "CNT2010": null, "STATE": "FL" }, "geometry": { "type": "Point", "coordinates": [ -8996470.54423114657402, 3260536.48690049815923 ] } },
{ "type": "Feature", "properties": { "OBJECTID": 30, "COUNTY": "Leon", "FORAGBUF": "13 miles", "ATLASNUM": "592001", "NAME": "Chaires", "LATY": 30.427527, "LONGX": -84.130216, "LASTACTIVE": 2016, "CNT2019": "0", "CNT2018": "0", "CNT2017": "0", "CNT2016": "25", "CNT2015": "0", "CNT2014": "70", "CNT2013": "200", "CNT2012": "0", "CNT2011": "200", "CNT2010": "170-200", "STATE": "FL" }, "geometry": { "type": "Point", "coordinates": [ -9365333.247755985707045, 3558624.417216319125146 ] } },
{ "type": "Feature", "properties": { "OBJECTID": 31, "COUNTY": "Broward", "FORAGBUF": "15 miles", "ATLASNUM": null, "NAME": "Cypress City", "LATY": 26.12408, "LONGX": -80.50438, "LASTACTIVE": 2017, "CNT2019": null, "CNT2018": null, "CNT2017": "23", "CNT2016": null, "CNT2015": null, "CNT2014": null, "CNT2013": null, "CNT2012": null, "CNT2011": null, "CNT2010": null, "STATE": "FL" }, "geometry": { "type": "Point", "coordinates": [ -8961706.897734010592103, 3014457.507619875948876 ] } },
{ "type": "Feature", "properties": { "OBJECTID": 32, "COUNTY": "Dade", "FORAGBUF": "18.6 miles", "ATLASNUM": "620313", "NAME": "Tamiami Trail West", "LATY": 25.75784, "LONGX": -80.54484, "LASTACTIVE": 2019, "CNT2019": "f", "CNT2018": "0", "CNT2017": "138", "CNT2016": "0", "CNT2015": "75", "CNT2014": "300", "CNT2013": "400", "CNT2012": "120", "CNT2011": "400", "CNT2010": "350", "STATE": "FL" }, "geometry": { "type": "Point", "coordinates": [ -8966210.884650249034166, 2969119.750298880040646 ] } },
{ "type": "Feature", "properties": { "OBJECTID": 33, "COUNTY": "Gulf", "FORAGBUF": "13 miles", "ATLASNUM": "0", "NAME": "Tupelo Bend", "LATY": 29.908, "LONGX": -85.0726, "LASTACTIVE": 2019, "CNT2019": "50", "CNT2018": "0", "CNT2017": "25", "CNT2016": "10", "CNT2015": "50", "CNT2014": "40", "CNT2013": "100", "CNT2012": "30", "CNT2011": "25-30", "CNT2010": "30", "STATE": "FL" }, "geometry": { "type": "Point", "coordinates": [ -9470238.982274230569601, 3491730.288437596522272 ] } },
{ "type": "Feature", "properties": { "OBJECTID": 34, "COUNTY": "Pinellas", "FORAGBUF": "18.6 miles", "ATLASNUM": "0", "NAME": "Alligator Lake", "LATY": 27.981544, "LONGX": -82.697058, "LASTACTIVE": 2019, "CNT2019": "6", "CNT2018": "0", "CNT2017": "33", "CNT2016": "40", "CNT2015": "62", "CNT2014": "41", "CNT2013": "50", "CNT2012": null, "CNT2011": null, "CNT2010": null, "STATE": "FL" }, "geometry": { "type": "Point", "coordinates": [ -9205794.773108495399356, 3246647.761688559316099 ] } },
{ "type": "Feature", "properties": { "OBJECTID": 35, "COUNTY": "Brevard", "FORAGBUF": "15 miles", "ATLASNUM": "0", "NAME": "Brevard County Maintenance Shop", "LATY": 28.3628, "LONGX": -80.785922, "LASTACTIVE": 2018, "CNT2019": null, "CNT2018": "Active", "CNT2017": null, "CNT2016": null, "CNT2015": null, "CNT2014": "Active", "CNT2013": "Active", "CNT2012": "Active", "CNT2011": "Active", "CNT2010": "Active", "STATE": "FL" }, "geometry": { "type": "Point", "coordinates": [ -8993048.026472805067897, 3294792.722270889673382 ] } },
{ "type": "Feature", "properties": { "OBJECTID": 36, "COUNTY": "Brevard", "FORAGBUF": "15 miles", "ATLASNUM": "0", "NAME": "Deseret Ranch", "LATY": 28.106667, "LONGX": -80.781667, "LASTACTIVE": 2019, "CNT2019": "75", "CNT2018": "230", "CNT2017": "195", "CNT2016": "180", "CNT2015": "235", "CNT2014": "165", "CNT2013": "390", "CNT2012": "399", "CNT2011": "270", "CNT2010": "100", "STATE": "FL" }, "geometry": { "type": "Point", "coordinates": [ -8992574.360898705199361, 3262429.389142822939903 ] } },
{ "type": "Feature", "properties": { "OBJECTID": 37, "COUNTY": "Brevard", "FORAGBUF": "15 miles", "ATLASNUM": "616301", "NAME": "Grange Island BC49", "LATY": 27.893042, "LONGX": -80.501699, "LASTACTIVE": 2019, "CNT2019": "35", "CNT2018": "95", "CNT2017": "85", "CNT2016": "60", "CNT2015": "95", "CNT2014": "75", "CNT2013": "170", "CNT2012": "22", "CNT2011": "25", "CNT2010": "15", "STATE": "FL" }, "geometry": { "type": "Point", "coordinates": [ -8961408.455852484330535, 3235496.169084027875215 ] } },
{ "type": "Feature", "properties": { "OBJECTID": 38, "COUNTY": "Brevard", "FORAGBUF": "15 miles", "ATLASNUM": "612127", "NAME": "Hwys 524/520", "LATY": 28.36558, "LONGX": -80.813722, "LASTACTIVE": 2019, "CNT2019": "6", "CNT2018": "80", "CNT2017": "40", "CNT2016": "80", "CNT2015": "170", "CNT2014": "65", "CNT2013": "120", "CNT2012": "0", "CNT2011": "62", "CNT2010": "15", "STATE": "FL" }, "geometry": { "type": "Point", "coordinates": [ -8996142.709157515317202, 3295144.412403833586723 ] } },
{ "type": "Feature", "properties": { "OBJECTID": 39, "COUNTY": "Broward", "FORAGBUF": "18.6 miles", "ATLASNUM": "0", "NAME": "Sawgrass Ford", "LATY": 26.149802, "LONGX": -80.337681, "LASTACTIVE": 2019, "CNT2019": "39", "CNT2018": "80", "CNT2017": "83", "CNT2016": "52", "CNT2015": "74", "CNT2014": "80", "CNT2013": null, "CNT2012": null, "CNT2011": null, "CNT2010": null, "STATE": "FL" }, "geometry": { "type": "Point", "coordinates": [ -8943150.044597703963518, 3017647.016097263433039 ] } },
{ "type": "Feature", "properties": { "OBJECTID": 40, "COUNTY": "Broward", "FORAGBUF": "18.6 miles", "ATLASNUM": "0", "NAME": "Emerald Estates 1 and 2 Griffin", "LATY": 26.0636333, "LONGX": -80.3664916, "LASTACTIVE": 2019, "CNT2019": "21", "CNT2018": "56", "CNT2017": "43", "CNT2016": "Active", "CNT2015": null, "CNT2014": null, "CNT2013": null, "CNT2012": null, "CNT2011": null, "CNT2010": null, "STATE": "FL" }, "geometry": { "type": "Point", "coordinates": [ -8946357.226658347994089, 3006964.926372083369642 ] } },
{ "type": "Feature", "properties": { "OBJECTID": 41, "COUNTY": "Charlotte", "FORAGBUF": "18.6 miles", "ATLASNUM": "616165", "NAME": "Morganton Central", "LATY": 27.016667, "LONGX": -81.983333, "LASTACTIVE": 2019, "CNT2019": "20", "CNT2018": "70", "CNT2017": "60", "CNT2016": "30", "CNT2015": "90", "CNT2014": "100", "CNT2013": "50", "CNT2012": "70", "CNT2011": "75", "CNT2010": "10", "STATE": "FL" }, "geometry": { "type": "Point", "coordinates": [ -9126343.243242207914591, 3125554.844261786900461 ] } },
{ "type": "Feature", "properties": { "OBJECTID": 42, "COUNTY": "Charlotte", "FORAGBUF": "18.6 miles", "ATLASNUM": "0", "NAME": "Morganton North", "LATY": 27.033567, "LONGX": -81.986667, "LASTACTIVE": 2019, "CNT2019": "110", "CNT2018": "220", "CNT2017": "155", "CNT2016": "230", "CNT2015": "200", "CNT2014": "0", "CNT2013": "175", "CNT2012": "280", "CNT2011": "325", "CNT2010": null, "STATE": "FL" }, "geometry": { "type": "Point", "coordinates": [ -9126714.382625102996826, 3127666.748544513713568 ] } },
{ "type": "Feature", "properties": { "OBJECTID": 43, "COUNTY": "Collier", "FORAGBUF": "18.6 miles", "ATLASNUM": "0", "NAME": "Barron Collier", "LATY": 26.273073, "LONGX": -81.344044, "LASTACTIVE": 2018, "CNT2019": "f", "CNT2018": "299", "CNT2017": "280", "CNT2016": "344", "CNT2015": "141", "CNT2014": "68", "CNT2013": "27", "CNT2012": "18", "CNT2011": null, "CNT2010": "19", "STATE": "FL" }, "geometry": { "type": "Point", "coordinates": [ -9055177.894316220656037, 3032942.296859414782375 ] } },
{ "type": "Feature", "properties": { "OBJECTID": 44, "COUNTY": "Collier", "FORAGBUF": "18.6 miles", "ATLASNUM": "619018", "NAME": "Corkscrew", "LATY": 26.366667, "LONGX": -81.615, "LASTACTIVE": 2019, "CNT2019": "f", "CNT2018": "328", "CNT2017": "250/467", "CNT2016": "0", "CNT2015": "0", "CNT2014": "270", "CNT2013": "0", "CNT2012": "0", "CNT2011": "0", "CNT2010": "0", "STATE": "FL" }, "geometry": { "type": "Point", "coordinates": [ -9085340.58727434836328, 3044566.150702815968543 ] } },
{ "type": "Feature", "properties": { "OBJECTID": 45, "COUNTY": "Dade", "FORAGBUF": "18.6 miles", "ATLASNUM": "0", "NAME": "Grossman Ridge West", "LATY": 25.63511, "LONGX": -80.6513, "LASTACTIVE": 2018, "CNT2019": null, "CNT2018": "105", "CNT2017": "55", "CNT2016": "0", "CNT2015": null, "CNT2014": "50", "CNT2013": "50", "CNT2012": null, "CNT2011": "60", "CNT2010": "75", "STATE": "FL" }, "geometry": { "type": "Point", "coordinates": [ -8978061.960762917995453, 2953958.066626948770136 ] } },
{ "type": "Feature", "properties": { "OBJECTID": 46, "COUNTY": "Dade", "FORAGBUF": "18.6 miles", "ATLASNUM": "0", "NAME": "Jetport", "LATY": 25.868, "LONGX": -80.844, "LASTACTIVE": 2018, "CNT2019": null, "CNT2018": "520", "CNT2017": "129", "CNT2016": null, "CNT2015": null, "CNT2014": "60", "CNT2013": "43", "CNT2012": null, "CNT2011": null, "CNT2010": null, "STATE": "FL" }, "geometry": { "type": "Point", "coordinates": [ -8999513.23345523327589, 2982741.923145355191082 ] } },
{ "type": "Feature", "properties": { "OBJECTID": 47, "COUNTY": "Dade", "FORAGBUF": "18.6 miles", "ATLASNUM": "0", "NAME": "Jetport South", "LATY": 25.8051, "LONGX": -80.84902, "LASTACTIVE": 2018, "CNT2019": null, "CNT2018": "953", "CNT2017": "857", "CNT2016": null, "CNT2015": null, "CNT2014": "400", "CNT2013": "463", "CNT2012": null, "CNT2011": "350", "CNT2010": null, "STATE": "FL" }, "geometry": { "type": "Point", "coordinates": [ -9000072.057356134057045, 2974962.278763544280082 ] } },
{ "type": "Feature", "properties": { "OBJECTID": 48, "COUNTY": "Dade", "FORAGBUF": "18.6 miles", "ATLASNUM": "NEW", "NAME": "WCA13", "LATY": 25.89387, "LONGX": -80.83727, "LASTACTIVE": 2018, "CNT2019": null, "CNT2018": "72", "CNT2017": null, "CNT2016": null, "CNT2015": null, "CNT2014": null, "CNT2013": null, "CNT2012": null, "CNT2011": null, "CNT2010": null, "STATE": "FL" }, "geometry": { "type": "Point", "coordinates": [ -8998764.053271358832717, 2985942.797172684688121 ] } },
{ "type": "Feature", "properties": { "OBJECTID": 49, "COUNTY": "Dade", "FORAGBUF": "18.6 miles", "ATLASNUM": "0", "NAME": "Paurotis Pond", "LATY": 25.2815, "LONGX": -80.803, "LASTACTIVE": 2019, "CNT2019": "f", "CNT2018": "682", "CNT2017": "326", "CNT2016": "230", "CNT2015": "285", "CNT2014": "270", "CNT2013": "500", "CNT2012": "320", "CNT2011": "500", "CNT2010": "325", "STATE": "FL" }, "geometry": { "type": "Point", "coordinates": [ -8994949.13140881806612, 2910360.923780004493892 ] } },
{ "type": "Feature", "properties": { "OBJECTID": 50, "COUNTY": "Duval", "FORAGBUF": "13 miles", "ATLASNUM": "594004", "NAME": "Dee Dot Ranch", "LATY": 30.216667, "LONGX": -81.443333, "LASTACTIVE": 2019, "CNT2019": "72", "CNT2018": "122", "CNT2017": "43", "CNT2016": "100+", "CNT2015": "130", "CNT2014": "170", "CNT2013": "Active", "CNT2012": "Active", "CNT2011": "55", "CNT2010": "20", "STATE": "FL" }, "geometry": { "type": "Point", "coordinates": [ -9066230.712926862761378, 3531431.619045034050941 ] } },
{ "type": "Feature", "properties": { "OBJECTID": 51, "COUNTY": "Duval", "FORAGBUF": "13 miles", "ATLASNUM": "0", "NAME": "Jacksonville Zoo", "LATY": 30.404988, "LONGX": -81.645111, "LASTACTIVE": 2019, "CNT2019": "69", "CNT2018": "45", "CNT2017": "72", "CNT2016": "101", "CNT2015": "91", "CNT2014": "83", "CNT2013": "90", "CNT2012": "106", "CNT2011": "105", "CNT2010": "115", "STATE": "FL" }, "geometry": { "type": "Point", "coordinates": [ -9088692.544414775446057, 3555714.967398162931204 ] } },
{ "type": "Feature", "properties": { "OBJECTID": 52, "COUNTY": "Flagler", "FORAGBUF": "13 miles", "ATLASNUM": "0", "NAME": "Lake Disston", "LATY": 29.29788, "LONGX": -81.382279, "LASTACTIVE": 2019, "CNT2019": "106", "CNT2018": "106", "CNT2017": "21", "CNT2016": "82", "CNT2015": "81", "CNT2014": "53", "CNT2013": "23", "CNT2012": null, "CNT2011": "8", "CNT2010": "150", "STATE": "FL" }, "geometry": { "type": "Point", "coordinates": [ -9059434.20701852440834, 3413615.096343653742224 ] } },
{ "type": "Feature", "properties": { "OBJECTID": 53, "COUNTY": "Glades", "FORAGBUF": "18.6 miles", "ATLASNUM": "0", "NAME": "Gator Farm", "LATY": 27.02278, "LONGX": -81.06084, "LASTACTIVE": 2019, "CNT2019": "35", "CNT2018": "50", "CNT2017": "12", "CNT2016": "63", "CNT2015": null, "CNT2014": null, "CNT2013": null, "CNT2012": null, "CNT2011": "0", "CNT2010": "7", "STATE": "FL" }, "geometry": { "type": "Point", "coordinates": [ -9023651.762408988550305, 3126318.719768522772938 ] } },
{ "type": "Feature", "properties": { "OBJECTID": 54, "COUNTY": "Glades", "FORAGBUF": "18.6 miles", "ATLASNUM": "NEW", "NAME": "Moonshine Bay 1-2-3", "LATY": 26.922267, "LONGX": -81.02969, "LASTACTIVE": 2019, "CNT2019": "15", "CNT2018": "15", "CNT2017": null, "CNT2016": null, "CNT2015": null, "CNT2014": null, "CNT2013": null, "CNT2012": null, "CNT2011": null, "CNT2010": null, "STATE": "FL" }, "geometry": { "type": "Point", "coordinates": [ -9020184.159072354435921, 3113764.008872374426574 ] } },
{ "type": "Feature", "properties": { "OBJECTID": 55, "COUNTY": "Hardee", "FORAGBUF": "18.6 miles", "ATLASNUM": "616016", "NAME": "El Claire Ranch", "LATY": 27.5055, "LONGX": -81.625, "LASTACTIVE": 2019, "CNT2019": "90", "CNT2018": "185", "CNT2017": "185", "CNT2016": "300", "CNT2015": "180", "CNT2014": "175", "CNT2013": "320", "CNT2012": "230", "CNT2011": "260", "CNT2010": "20", "STATE": "FL" }, "geometry": { "type": "Point", "coordinates": [ -9086453.786236619576812, 3186771.136564599815756 ] } },
{ "type": "Feature", "properties": { "OBJECTID": 56, "COUNTY": "Hernando", "FORAGBUF": "15 miles", "ATLASNUM": "611304", "NAME": "Croom", "LATY": 28.536667, "LONGX": -82.206667, "LASTACTIVE": 2019, "CNT2019": "70", "CNT2018": "83", "CNT2017": "48", "CNT2016": "49", "CNT2015": "42", "CNT2014": "15", "CNT2013": "0", "CNT2012": "0", "CNT2011": null, "CNT2010": "0", "STATE": "FL" }, "geometry": { "type": "Point", "coordinates": [ -9151204.683002920821309, 3316805.938943122979254 ] } },
{ "type": "Feature", "properties": { "OBJECTID": 57, "COUNTY": "Hillsborough", "FORAGBUF": "15 miles", "ATLASNUM": "0", "NAME": "Cross Creek", "LATY": 28.142455, "LONGX": -82.351973, "LASTACTIVE": 2019, "CNT2019": "33", "CNT2018": "42", "CNT2017": "21", "CNT2016": "21", "CNT2015": "21", "CNT2014": "10", "CNT2013": "0", "CNT2012": "0", "CNT2011": "29", "CNT2010": "2, 34", "STATE": "FL" }, "geometry": { "type": "Point", "coordinates": [ -9167380.076122904196382, 3266946.665812451858073 ] } },
{ "type": "Feature", "properties": { "OBJECTID": 58, "COUNTY": "Hillsborough", "FORAGBUF": "15 miles", "ATLASNUM": "611310", "NAME": "Cypress Creek I-75", "LATY": 28.162766, "LONGX": -82.397479, "LASTACTIVE": 2019, "CNT2019": "56", "CNT2018": "63", "CNT2017": "28", "CNT2016": "45", "CNT2015": "49", "CNT2014": "41", "CNT2013": "74", "CNT2012": "15", "CNT2011": "16", "CNT2010": "1, 97", "STATE": "FL" }, "geometry": { "type": "Point", "coordinates": [ -9172445.782410781830549, 3269511.059852238744497 ] } },
{ "type": "Feature", "properties": { "OBJECTID": 59, "COUNTY": "Hillsborough", "FORAGBUF": "15 miles", "ATLASNUM": "0", "NAME": "Ferman Corporation", "LATY": 27.944722, "LONGX": -82.341667, "LASTACTIVE": 2019, "CNT2019": "44", "CNT2018": "44", "CNT2017": "30", "CNT2016": "14, 30", "CNT2015": "17", "CNT2014": "40", "CNT2013": "30", "CNT2012": "26", "CNT2011": "43", "CNT2010": "29", "STATE": "FL" }, "geometry": { "type": "Point", "coordinates": [ -9166232.816401755437255, 3242006.936443793121725 ] } },
{ "type": "Feature", "properties": { "OBJECTID": 60, "COUNTY": "Hillsborough", "FORAGBUF": "15 miles", "ATLASNUM": "0", "NAME": "Lake Forest", "LATY": 28.085869, "LONGX": -82.419672, "LASTACTIVE": 2019, "CNT2019": "46", "CNT2018": "46", "CNT2017": "33", "CNT2016": "30,25", "CNT2015": "35", "CNT2014": "10", "CNT2013": "18", "CNT2012": null, "CNT2011": null, "CNT2010": "A", "STATE": "FL" }, "geometry": { "type": "Point", "coordinates": [ -9174916.296268489211798, 3259804.882778068538755 ] } },
{ "type": "Feature", "properties": { "OBJECTID": 61, "COUNTY": "Hillsborough", "FORAGBUF": "15 miles", "ATLASNUM": "0", "NAME": "Northlakes - Sagebrush", "LATY": 28.10185, "LONGX": -82.49758, "LASTACTIVE": 2019, "CNT2019": "60", "CNT2018": "61", "CNT2017": "31", "CNT2016": "57, 45", "CNT2015": "45", "CNT2014": "51", "CNT2013": "65", "CNT2012": "60", "CNT2011": "50", "CNT2010": "Active", "STATE": "FL" }, "geometry": { "type": "Point", "coordinates": [ -9183588.977797320112586, 3261821.480712115298957 ] } },
{ "type": "Feature", "properties": { "OBJECTID": 62, "COUNTY": "Hillsborough", "FORAGBUF": "15 miles", "ATLASNUM": "611309", "NAME": "Sheldon Rd - Citrus Park", "LATY": 28.07, "LONGX": -82.583, "LASTACTIVE": 2019, "CNT2019": "57", "CNT2018": "66", "CNT2017": "20", "CNT2016": "45, 30", "CNT2015": "30", "CNT2014": "30", "CNT2013": "39", "CNT2012": "57", "CNT2011": "26", "CNT2010": "1, 56", "STATE": "FL" }, "geometry": { "type": "Point", "coordinates": [ -9193097.89132185280323, 3257802.713959090877324 ] } },
{ "type": "Feature", "properties": { "OBJECTID": 63, "COUNTY": "Indian River", "FORAGBUF": "18.6 miles", "ATLASNUM": "616007", "NAME": "Pelican Island", "LATY": 27.796483, "LONGX": -80.432531, "LASTACTIVE": 2019, "CNT2019": "30", "CNT2018": "75", "CNT2017": "105", "CNT2016": "125", "CNT2015": "115", "CNT2014": "100", "CNT2013": "70", "CNT2012": "110, 88", "CNT2011": "Active", "CNT2010": "20", "STATE": "FL" }, "geometry": { "type": "Point", "coordinates": [ -8953708.706776572391391, 3223339.750769384205341 ] } },
{ "type": "Feature", "properties": { "OBJECTID": 64, "COUNTY": "Lee", "FORAGBUF": "18.6 miles", "ATLASNUM": "619041", "NAME": "Caloosahatchee River West", "LATY": 26.688822, "LONGX": -81.830155, "LASTACTIVE": 2019, "CNT2019": "164", "CNT2018": "473", "CNT2017": "300", "CNT2016": "307", "CNT2015": "69", "CNT2014": "140", "CNT2013": "27", "CNT2012": "60", "CNT2011": "42", "CNT2010": "50", "STATE": "FL" }, "geometry": { "type": "Point", "coordinates": [ -9109291.540320975705981, 3084648.281027667690068 ] } },
{ "type": "Feature", "properties": { "OBJECTID": 65, "COUNTY": "Leon", "FORAGBUF": "13 miles", "ATLASNUM": "0", "NAME": "Ochlocknee South Duck Lake", "LATY": 30.508704, "LONGX": -84.35763, "LASTACTIVE": 2019, "CNT2019": "175", "CNT2018": "170", "CNT2017": "275", "CNT2016": "275", "CNT2015": "150", "CNT2014": "175", "CNT2013": "150", "CNT2012": "15-20", "CNT2011": "108", "CNT2010": "150-170", "STATE": "FL" }, "geometry": { "type": "Point", "coordinates": [ -9390648.866042133420706, 3569108.77178357867524 ] } },
{ "type": "Feature", "properties": { "OBJECTID": 66, "COUNTY": "Manatee", "FORAGBUF": "15 miles", "ATLASNUM": "615113", "NAME": "Ayers Point - Dot Dash", "LATY": 27.498958, "LONGX": -82.525366, "LASTACTIVE": 2019, "CNT2019": "94", "CNT2018": "151", "CNT2017": "137", "CNT2016": "159, 130", "CNT2015": "145", "CNT2014": "121", "CNT2013": "101", "CNT2012": "134", "CNT2011": "120", "CNT2010": "0, 200", "STATE": "FL" }, "geometry": { "type": "Point", "coordinates": [ -9186682.099928939715028, 3185950.098563551902771 ] } },
{ "type": "Feature", "properties": { "OBJECTID": 67, "COUNTY": "Martin", "FORAGBUF": "18.6 miles", "ATLASNUM": "616009", "NAME": "Sewal Point MC2 - Bird Island", "LATY": 27.190364, "LONGX": -80.187839, "LASTACTIVE": 2019, "CNT2019": "11", "CNT2018": "123", "CNT2017": "44", "CNT2016": "24", "CNT2015": "37", "CNT2014": "40", "CNT2013": null, "CNT2012": null, "CNT2011": null, "CNT2010": "20", "STATE": "FL" }, "geometry": { "type": "Point", "coordinates": [ -8926469.70794721506536, 3147276.044197707436979 ] } },
{ "type": "Feature", "properties": { "OBJECTID": 68, "COUNTY": "Monroe", "FORAGBUF": "18.6 miles", "ATLASNUM": "0", "NAME": "Broad River", "LATY": 25.50293, "LONGX": -80.9744, "LASTACTIVE": 2019, "CNT2019": "f", "CNT2018": "746", "CNT2017": "545", "CNT2016": "340", "CNT2015": "193", "CNT2014": "300", "CNT2013": "150", "CNT2012": "60", "CNT2011": "30", "CNT2010": "0", "STATE": "FL" }, "geometry": { "type": "Point", "coordinates": [ -9014029.298294814303517, 2937646.378038948401809 ] } },
{ "type": "Feature", "properties": { "OBJECTID": 69, "COUNTY": "Monroe", "FORAGBUF": "18.6 miles", "ATLASNUM": "0", "NAME": "Cabbage Bay", "LATY": 25.62, "LONGX": -81.05612, "LASTACTIVE": 2019, "CNT2019": "f", "CNT2018": "430", "CNT2017": "224", "CNT2016": "10", "CNT2015": "65", "CNT2014": "60", "CNT2013": "150", "CNT2012": "75", "CNT2011": "70", "CNT2010": "0", "STATE": "FL" }, "geometry": { "type": "Point", "coordinates": [ -9023126.329961951822042, 2952092.502047930844128 ] } },
{ "type": "Feature", "properties": { "OBJECTID": 70, "COUNTY": "Monroe", "FORAGBUF": "18.6 miles", "ATLASNUM": "62034", "NAME": "Rodgers River Bay Island", "LATY": 25.55571, "LONGX": -81.07, "LASTACTIVE": 2018, "CNT2019": null, "CNT2018": "10", "CNT2017": "25", "CNT2016": "0", "CNT2015": null, "CNT2014": null, "CNT2013": null, "CNT2012": null, "CNT2011": null, "CNT2010": "5", "STATE": "FL" }, "geometry": { "type": "Point", "coordinates": [ -9024671.444832561537623, 2944157.540893704164773 ] } },
{ "type": "Feature", "properties": { "OBJECTID": 71, "COUNTY": "Orange", "FORAGBUF": "15 miles", "ATLASNUM": "0", "NAME": "Gatorland", "LATY": 28.355044, "LONGX": -81.402305, "LASTACTIVE": 2019, "CNT2019": "28", "CNT2018": "Active", "CNT2017": "Active", "CNT2016": "10", "CNT2015": "10", "CNT2014": "Active", "CNT2013": "Active", "CNT2012": "17", "CNT2011": "Active", "CNT2010": "13", "STATE": "FL" }, "geometry": { "type": "Point", "coordinates": [ -9061663.4880904648453, 3293811.578571309801191 ] } },
{ "type": "Feature", "properties": { "OBJECTID": 72, "COUNTY": "Orange", "FORAGBUF": "15 miles", "ATLASNUM": "612037", "NAME": "Lake Mary Jane", "LATY": 28.379004, "LONGX": -81.184405, "LASTACTIVE": 2019, "CNT2019": "30", "CNT2018": "90", "CNT2017": "100", "CNT2016": "170", "CNT2015": "95", "CNT2014": "140, 188", "CNT2013": "130, 132", "CNT2012": "95, 172", "CNT2011": "125", "CNT2010": "15, 100", "STATE": "FL" }, "geometry": { "type": "Point", "coordinates": [ -9037406.964059572666883, 3296842.774415908381343 ] } },
{ "type": "Feature", "properties": { "OBJECTID": 73, "COUNTY": "Orange", "FORAGBUF": "15 miles", "ATLASNUM": "0", "NAME": "Lawne Lake", "LATY": 28.5638, "LONGX": -81.4365, "LASTACTIVE": 2019, "CNT2019": "55", "CNT2018": "40", "CNT2017": "65", "CNT2016": "70", "CNT2015": "115", "CNT2014": "65", "CNT2013": "105", "CNT2012": "200", "CNT2011": "Active", "CNT2010": "40", "STATE": "FL" }, "geometry": { "type": "Point", "coordinates": [ -9065470.059892740100622, 3320244.509391533210874 ] } },
{ "type": "Feature", "properties": { "OBJECTID": 74, "COUNTY": "Orange", "FORAGBUF": "15 miles", "ATLASNUM": null, "NAME": "Eagle Nest Park", "LATY": 28.51831, "LONGX": -81.44777, "LASTACTIVE": 2019, "CNT2019": "90", "CNT2018": "100", "CNT2017": "125", "CNT2016": "65", "CNT2015": null, "CNT2014": null, "CNT2013": null, "CNT2012": null, "CNT2011": null, "CNT2010": null, "STATE": "FL" }, "geometry": { "type": "Point", "coordinates": [ -9066724.630796857178211, 3314480.059076411649585 ] } },
{ "type": "Feature", "properties": { "OBJECTID": 75, "COUNTY": "Orange", "FORAGBUF": "15 miles", "ATLASNUM": "0", "NAME": "Orlando Wetlands Park", "LATY": 28.5745833, "LONGX": -80.9926778, "LASTACTIVE": 2018, "CNT2019": "0", "CNT2018": "Active/Fail", "CNT2017": "Active/Fail", "CNT2016": "130", "CNT2015": "95", "CNT2014": "Active", "CNT2013": "Active", "CNT2012": null, "CNT2011": null, "CNT2010": null, "STATE": "FL" }, "geometry": { "type": "Point", "coordinates": [ -9016063.984266795217991, 3321611.325666224118322 ] } },
{ "type": "Feature", "properties": { "OBJECTID": 76, "COUNTY": "Osceola", "FORAGBUF": "18.6 miles", "ATLASNUM": "0", "NAME": "Lake Russell", "LATY": 28.125007, "LONGX": -81.411142, "LASTACTIVE": 2019, "CNT2019": "127", "CNT2018": "108", "CNT2017": "108", "CNT2016": "51", "CNT2015": "60", "CNT2014": "43, 45", "CNT2013": "42", "CNT2012": "119", "CNT2011": "8", "CNT2010": "87 / 20", "STATE": "FL" }, "geometry": { "type": "Point", "coordinates": [ -9062647.21794487349689, 3264744.135290776379406 ] } },
{ "type": "Feature", "properties": { "OBJECTID": 77, "COUNTY": "Palm Beach", "FORAGBUF": "18.6 miles", "ATLASNUM": "0", "NAME": "Ballen Isles", "LATY": 26.830142, "LONGX": -80.109086, "LASTACTIVE": 2019, "CNT2019": "17", "CNT2018": "17", "CNT2017": "36", "CNT2016": "28", "CNT2015": "24", "CNT2014": "22", "CNT2013": null, "CNT2012": null, "CNT2011": null, "CNT2010": null, "STATE": "FL" }, "geometry": { "type": "Point", "coordinates": [ -8917702.960249813273549, 3102266.835401496849954 ] } },
{ "type": "Feature", "properties": { "OBJECTID": 78, "COUNTY": "Palm Beach", "FORAGBUF": "18.6 miles", "ATLASNUM": "619220", "NAME": "Solid Waste Authority", "LATY": 26.768736, "LONGX": -80.145538, "LASTACTIVE": 2019, "CNT2019": "72", "CNT2018": "365", "CNT2017": "155", "CNT2016": "255", "CNT2015": "255", "CNT2014": "304", "CNT2013": "413", "CNT2012": "275", "CNT2011": "386", "CNT2010": "131, 10", "STATE": "FL" }, "geometry": { "type": "Point", "coordinates": [ -8921760.779360203072429, 3094608.576358224265277 ] } },
{ "type": "Feature", "properties": { "OBJECTID": 79, "COUNTY": "Palm Beach", "FORAGBUF": "18.6 miles", "ATLASNUM": "0", "NAME": "Wakodahatchee", "LATY": 26.477389, "LONGX": -80.142094, "LASTACTIVE": 2019, "CNT2019": "123", "CNT2018": "164", "CNT2017": "98", "CNT2016": "59", "CNT2015": "28", "CNT2014": "17", "CNT2013": "17", "CNT2012": "9", "CNT2011": null, "CNT2010": null, "STATE": "FL" }, "geometry": { "type": "Point", "coordinates": [ -8921377.394093081355095, 3058329.373449582606554 ] } },
{ "type": "Feature", "properties": { "OBJECTID": 80, "COUNTY": "Pasco", "FORAGBUF": "15 miles", "ATLASNUM": "0", "NAME": "Embassy - Shoppers Way", "LATY": 28.295, "LONGX": -82.705, "LASTACTIVE": 2019, "CNT2019": "40", "CNT2018": "59", "CNT2017": "38", "CNT2016": "30", "CNT2015": "45", "CNT2014": "15", "CNT2013": "44", "CNT2012": "30", "CNT2011": "56", "CNT2010": "0, 44", "STATE": "FL" }, "geometry": { "type": "Point", "coordinates": [ -9206678.87388626486063, 3286218.371897089760751 ] } },
{ "type": "Feature", "properties": { "OBJECTID": 81, "COUNTY": "Pasco", "FORAGBUF": "15 miles", "ATLASNUM": "0", "NAME": "Greenbrooke", "LATY": 28.215099, "LONGX": -82.674024, "LASTACTIVE": 2019, "CNT2019": "42", "CNT2018": "47", "CNT2017": "36", "CNT2016": "43, 55", "CNT2015": "63", "CNT2014": "49", "CNT2013": "55", "CNT2012": "32", "CNT2011": "73", "CNT2010": "10, 88", "STATE": "FL" }, "geometry": { "type": "Point", "coordinates": [ -9203230.640115302056074, 3276120.679799132980406 ] } },
{ "type": "Feature", "properties": { "OBJECTID": 82, "COUNTY": "Pasco", "FORAGBUF": "15 miles", "ATLASNUM": "0", "NAME": "Heron Island", "LATY": 28.20866, "LONGX": -82.677341, "LASTACTIVE": 2019, "CNT2019": "11", "CNT2018": "6", "CNT2017": "8", "CNT2016": "3, 13", "CNT2015": "14", "CNT2014": "12", "CNT2013": "21", "CNT2012": "14", "CNT2011": "24", "CNT2010": "1, 19", "STATE": "FL" }, "geometry": { "type": "Point", "coordinates": [ -9203599.886926308274269, 3275307.263907999265939 ] } },
{ "type": "Feature", "properties": { "OBJECTID": 83, "COUNTY": "Pasco", "FORAGBUF": "15 miles", "ATLASNUM": "0", "NAME": "Heron Point - Land O Lakes", "LATY": 28.215678, "LONGX": -82.434929, "LASTACTIVE": 2018, "CNT2019": null, "CNT2018": "15", "CNT2017": "3", "CNT2016": "10, 10", "CNT2015": "5", "CNT2014": "13", "CNT2013": "17", "CNT2012": "1", "CNT2011": "7", "CNT2010": "0, 14", "STATE": "FL" }, "geometry": { "type": "Point", "coordinates": [ -9176614.698725342750549, 3276193.825965872965753 ] } },
{ "type": "Feature", "properties": { "OBJECTID": 84, "COUNTY": "Pasco", "FORAGBUF": "15 miles", "ATLASNUM": "0", "NAME": "Saddlebrook Resort", "LATY": 28.227436, "LONGX": -82.329722, "LASTACTIVE": 2019, "CNT2019": "26", "CNT2018": "15", "CNT2017": "23", "CNT2016": "28", "CNT2015": "38", "CNT2014": "37", "CNT2013": "40", "CNT2012": "39", "CNT2011": "36", "CNT2010": "62", "STATE": "FL" }, "geometry": { "type": "Point", "coordinates": [ -9164903.105818660929799, 3277679.306880872696638 ] } },
{ "type": "Feature", "properties": { "OBJECTID": 85, "COUNTY": "Polk", "FORAGBUF": "18.6 miles", "ATLASNUM": "616037", "NAME": "Lake Rosalie", "LATY": 27.910031, "LONGX": -81.421999, "LASTACTIVE": 2019, "CNT2019": "44", "CNT2018": "8", "CNT2017": "20", "CNT2016": "12", "CNT2015": "15", "CNT2014": "1, 9", "CNT2013": "20", "CNT2012": "25", "CNT2011": "15", "CNT2010": "5", "STATE": "FL" }, "geometry": { "type": "Point", "coordinates": [ -9063855.813193472102284, 3237636.138879955280572 ] } },
{ "type": "Feature", "properties": { "OBJECTID": 86, "COUNTY": "Polk", "FORAGBUF": "18.6 miles", "ATLASNUM": "612316", "NAME": "Lake Somerset", "LATY": 28.004065, "LONGX": -81.931122, "LASTACTIVE": 2019, "CNT2019": "82", "CNT2018": "110/65", "CNT2017": "75, 72", "CNT2016": "75, 20", "CNT2015": "230, 231", "CNT2014": "165, 190", "CNT2013": "303, 560", "CNT2012": "220, 269, 228", "CNT2011": "222, 253", "CNT2010": "30, 408", "STATE": "FL" }, "geometry": { "type": "Point", "coordinates": [ -9120531.143047021701932, 3249486.958346442319453 ] } },
{ "type": "Feature", "properties": { "OBJECTID": 87, "COUNTY": "Polk", "FORAGBUF": "18.6 miles", "ATLASNUM": "0", "NAME": "Lone Palm", "LATY": 28.05108, "LONGX": -82.005661, "LASTACTIVE": 2019, "CNT2019": "169", "CNT2018": "130", "CNT2017": "105", "CNT2016": "120, 125", "CNT2015": "70", "CNT2014": "65", "CNT2013": "110", "CNT2012": "80, 92", "CNT2011": null, "CNT2010": "0, 128", "STATE": "FL" }, "geometry": { "type": "Point", "coordinates": [ -9128828.78918881341815, 3255415.993757223244756 ] } },
{ "type": "Feature", "properties": { "OBJECTID": 88, "COUNTY": "Polk", "FORAGBUF": "18.6 miles", "ATLASNUM": "616039", "NAME": "Mulberry Northeast", "LATY": 27.908112, "LONGX": -81.949374, "LASTACTIVE": 2019, "CNT2019": "85", "CNT2018": "75", "CNT2017": "155", "CNT2016": "110", "CNT2015": "90", "CNT2014": "50", "CNT2013": "135", "CNT2012": "90", "CNT2011": null, "CNT2010": "9", "STATE": "FL" }, "geometry": { "type": "Point", "coordinates": [ -9122562.946616737172008, 3237394.398666379973292 ] } },
{ "type": "Feature", "properties": { "OBJECTID": 89, "COUNTY": "Sarasota", "FORAGBUF": "18.6 miles", "ATLASNUM": "615040", "NAME": "North Port Charlotte", "LATY": 27.03263, "LONGX": -82.276673, "LASTACTIVE": 2019, "CNT2019": "70", "CNT2018": "90", "CNT2017": "100", "CNT2016": "140, 118", "CNT2015": "170", "CNT2014": "140", "CNT2013": "130", "CNT2012": "150", "CNT2011": "0", "CNT2010": "86, 35", "STATE": "FL" }, "geometry": { "type": "Point", "coordinates": [ -9158997.712208904325962, 3127549.647289597429335 ] } },
{ "type": "Feature", "properties": { "OBJECTID": 90, "COUNTY": "Sarasota", "FORAGBUF": "18.6 miles", "ATLASNUM": null, "NAME": "North Port Charlotte North", "LATY": 27.0357, "LONGX": -82.2794, "LASTACTIVE": 2019, "CNT2019": "45", "CNT2018": "50", "CNT2017": "31", "CNT2016": "30", "CNT2015": null, "CNT2014": null, "CNT2013": null, "CNT2012": null, "CNT2011": null, "CNT2010": null, "STATE": "FL" }, "geometry": { "type": "Point", "coordinates": [ -9159301.280532639473677, 3127933.319979806430638 ] } },
{ "type": "Feature", "properties": { "OBJECTID": 91, "COUNTY": "St. Johns", "FORAGBUF": "13 miles", "ATLASNUM": "0", "NAME": "St. Augustine Alligator Farm", "LATY": 29.882988, "LONGX": -81.289798, "LASTACTIVE": 2019, "CNT2019": "80", "CNT2018": "90", "CNT2017": "72", "CNT2016": "95", "CNT2015": "60", "CNT2014": "63", "CNT2013": "63", "CNT2012": "71", "CNT2011": "60", "CNT2010": "58, 50", "STATE": "FL" }, "geometry": { "type": "Point", "coordinates": [ -9049139.268470847979188, 3488518.619146164972335 ] } },
{ "type": "Feature", "properties": { "OBJECTID": 92, "COUNTY": "St. Lucie", "FORAGBUF": "18.6 miles", "ATLASNUM": "616047", "NAME": "Cypress Creek Bluefield Road", "LATY": 27.288333, "LONGX": -80.616667, "LASTACTIVE": 2018, "CNT2019": "0", "CNT2018": "16", "CNT2017": "0", "CNT2016": "220", "CNT2015": "230", "CNT2014": "230", "CNT2013": "280", "CNT2012": "305", "CNT2011": "285", "CNT2010": "25", "STATE": "FL" }, "geometry": { "type": "Point", "coordinates": [ -8974206.636771030724049, 3159542.196333347354084 ] } },
{ "type": "Feature", "properties": { "OBJECTID": 93, "COUNTY": "Volusia", "FORAGBUF": "15 miles", "ATLASNUM": "0", "NAME": "Hontoon Island", "LATY": 28.992753, "LONGX": -81.363175, "LASTACTIVE": 2019, "CNT2019": "20", "CNT2018": "27", "CNT2017": "15", "CNT2016": "16", "CNT2015": "20", "CNT2014": null, "CNT2013": null, "CNT2012": "Active", "CNT2011": null, "CNT2010": "0", "STATE": "FL" }, "geometry": { "type": "Point", "coordinates": [ -9057307.557536773383617, 3374724.380452454090118 ] } },
{ "type": "Feature", "properties": { "OBJECTID": 94, "COUNTY": "Sarasota", "FORAGBUF": "18.6 miles", "ATLASNUM": "NEW", "NAME": "Dona Bay", "LATY": 27.113789, "LONGX": -82.45421, "LASTACTIVE": 2019, "CNT2019": "70", "CNT2018": null, "CNT2017": null, "CNT2016": null, "CNT2015": null, "CNT2014": null, "CNT2013": null, "CNT2012": null, "CNT2011": null, "CNT2010": null, "STATE": "FL" }, "geometry": { "type": "Point", "coordinates": [ -9178761.046623362228274, 3137696.009530315175653 ] } },
{ "type": "Feature", "properties": { "OBJECTID": 95, "COUNTY": "Okeechobee", "FORAGBUF": "18.6 miles", "ATLASNUM": "NEW", "NAME": "Lemkin Creek", "LATY": 27.206, "LONGX": -80.889, "LASTACTIVE": 2018, "CNT2019": null, "CNT2018": "7", "CNT2017": null, "CNT2016": null, "CNT2015": null, "CNT2014": null, "CNT2013": null, "CNT2012": null, "CNT2011": null, "CNT2010": null, "STATE": "FL" }, "geometry": { "type": "Point", "coordinates": [ -9004522.616176091134548, 3149233.015098972711712 ] } }
]
}
