{
"type": "FeatureCollection",
"name": "pollinglocjson",
"features": [
{ "type": "Feature", "properties": { "precno": 1.0, "name": "WESTMINSTER PRESBYTERIAN CHURCH", "city": "CHARLOTTE", "zone": 5.0, "address": "101 COLVILLE RD", "type": "Restricted", "location": "WESTMINSTER PRESBYTERIAN CHURCH - BEARD HALL" }, "geometry": { "type": "Point", "coordinates": [ 1456933.997311219573021, 533972.00016213953495 ] } },
{ "type": "Feature", "properties": { "precno": 3.0, "name": "COCHRANE COLLEGIATE ACADEMY", "city": "CHARLOTTE", "zone": 12.0, "address": "6200 STARHAVEN DR", "type": "Campaigning Permitted", "location": "COCHRANE COLLEGIATE ACADEMY - GYM" }, "geometry": { "type": "Point", "coordinates": [ 1477458.99727164208889, 549224.999839812517166 ] } },
{ "type": "Feature", "properties": { "precno": 5.0, "name": "THIRD PRESBYTERIAN CHURCH", "city": "CHARLOTTE", "zone": 12.0, "address": "4019 CENTRAL AVE", "type": "Restricted", "location": "THIRD PRESBYTERIAN CHURCH- FELLOWSHIP HALL" }, "geometry": { "type": "Point", "coordinates": [ 1469444.997223556041718, 538170.999966233968735 ] } },
{ "type": "Feature", "properties": { "precno": 7.0, "name": "RANDOLPH MIDDLE SCHOOL", "city": "CHARLOTTE", "zone": 5.0, "address": "4400 WATER OAK RD", "type": "Campaigning Permitted", "location": "RANDOLPH MIDDLE SCHOOL - MEDIA CENTER" }, "geometry": { "type": "Point", "coordinates": [ 1463839.997278720140457, 526789.000092476606369 ] } },
{ "type": "Feature", "properties": { "precno": 8.0, "name": "MYERS PARK ELEMENTARY SCHOOL", "city": "CHARLOTTE", "zone": 11.0, "address": "2132 RADCLIFFE AVE", "type": "Campaigning Permitted", "location": "MYERS PARK ELEMENTARY SCHOOL - GYM" }, "geometry": { "type": "Point", "coordinates": [ 1452005.997324720025063, 529379.000161811709404 ] } },
{ "type": "Feature", "properties": { "precno": 12.0, "name": "WALLACE PRUITT RECREATION CENTER", "city": "CHARLOTTE", "zone": 2.0, "address": "440 TUCKASEEGEE RD", "type": "Campaigning Permitted", "location": "WALLACE PRUITT RECREATION CENTER - GYM" }, "geometry": { "type": "Point", "coordinates": [ 1443605.997392475605011, 547172.000008806586266 ] } },
{ "type": "Feature", "properties": { "precno": 13.0, "name": "FIRST WARD ELEMENTARY SCHOOL", "city": "CHARLOTTE", "zone": 8.0, "address": "715 N CALDWELL ST", "type": "Campaigning Permitted", "location": "FIRST WARD ELEMENTARY SCHOOL - FLEX ROOM IN ANNEX" }, "geometry": { "type": "Point", "coordinates": [ 1452865.997245132923126, 543360.000086888670921 ] } },
{ "type": "Feature", "properties": { "precno": 15.0, "name": "MIDWOOD BAPTIST CHURCH", "city": "CHARLOTTE", "zone": 12.0, "address": "2029 MECKLENBURG AVE", "type": "Restricted", "location": "MIDWOOD BAPTIST CHURCH - FELLOWSHIP HALL" }, "geometry": { "type": "Point", "coordinates": [ 1462233.997537970542908, 544037.000045225024223 ] } },
{ "type": "Feature", "properties": { "precno": 18.0, "name": "EASTOVER ELEMENTARY SCHOOL", "city": "CHARLOTTE", "zone": 5.0, "address": "500 CHEROKEE RD", "type": "Campaigning Permitted", "location": "EASTOVER ELEMENTARY SCHOOL - GYM" }, "geometry": { "type": "Point", "coordinates": [ 1455910.99738872051239, 531460.999934807419777 ] } },
{ "type": "Feature", "properties": { "precno": 19.0, "name": "MYERS PARK HIGH SCHOOL", "city": "CHARLOTTE", "zone": 11.0, "address": "2400 COLONY RD", "type": "Campaigning Permitted", "location": "MYERS PARK HIGH SCHOOL - ART GALLERY" }, "geometry": { "type": "Point", "coordinates": [ 1452140.997382804751396, 522181.000122144818306 ] } },
{ "type": "Feature", "properties": { "precno": 20.0, "name": "AVONDALE PRESBYTERIAN CHURCH", "city": "CHARLOTTE", "zone": 11.0, "address": "2821 PARK RD", "type": "Restricted", "location": "AVONDALE PRESBYTERIAN CHURCH - FAMILY LIFE CENTER" }, "geometry": { "type": "Point", "coordinates": [ 1446668.997500047087669, 530079.000074148178101 ] } },
{ "type": "Feature", "properties": { "precno": 21.0, "name": "SEDGEFIELD UNITED METHODIST CHURCH", "city": "CHARLOTTE", "zone": 11.0, "address": "2830 DORCHESTER PL", "type": "Restricted", "location": "SEDGEFIELD UNITED METHODIST CHURCH - FELLOWSHIP HALL" }, "geometry": { "type": "Point", "coordinates": [ 1444093.997400715947151, 531495.999864816665649 ] } },
{ "type": "Feature", "properties": { "precno": 23.0, "name": "BISHOP SPAUGH COMMUNITY ACADEMY", "city": "CHARLOTTE", "zone": 2.0, "address": "1901 HERBERT SPAUGH LN", "type": "Campaigning Permitted", "location": "BISHOP SPAUGH COMMUNITY ACADEMY - CAFETERIA" }, "geometry": { "type": "Point", "coordinates": [ 1436817.997517049312592, 544601.999899476766586 ] } },
{ "type": "Feature", "properties": { "precno": 24.0, "name": "BETTE RAE THOMAS RECREATION CENTER", "city": "CHARLOTTE", "zone": 2.0, "address": "2921 TUCKASEEGEE RD", "type": "Campaigning Permitted", "location": "BETTE RAE THOMAS RECREATION CENTER - GYM" }, "geometry": { "type": "Point", "coordinates": [ 1439379.997314304113388, 548137.00004731118679 ] } },
{ "type": "Feature", "properties": { "precno": 25.0, "name": "WEST CHARLOTTE RECREATION CENTER", "city": "CHARLOTTE", "zone": 8.0, "address": "2401 KENDALL DR", "type": "Campaigning Permitted", "location": "WEST CHARLOTTE RECREATION CENTER - MULTI-PURPOSE ROOM 3" }, "geometry": { "type": "Point", "coordinates": [ 1445645.999874129891396, 557772.000134229660034 ] } },
{ "type": "Feature", "properties": { "precno": 27.0, "name": "HIGHLAND RENAISSANCE ACADEMY", "city": "CHARLOTTE", "zone": 8.0, "address": "125 W CRAIGHEAD RD", "type": "Campaigning Permitted", "location": "HIGHLAND RENAISSANCE ACADEMY - MULTI-PURPOSE ROOM" }, "geometry": { "type": "Point", "coordinates": [ 1461667.99735763669014, 552856.000123724341393 ] } },
{ "type": "Feature", "properties": { "precno": 29.0, "name": "MERRY OAKS ELEMENTARY SCHOOL", "city": "CHARLOTTE", "zone": 12.0, "address": "3508 DRAPER AVE", "type": "Campaigning Permitted", "location": "MERRY OAKS ELEMENTARY SCHOOL - MULTI-PURPOSE ROOM" }, "geometry": { "type": "Point", "coordinates": [ 1467568.997366636991501, 539156.999962732195854 ] } },
{ "type": "Feature", "properties": { "precno": 31.0, "name": "BARRINGER ACADEMIC CENTER", "city": "CHARLOTTE", "zone": 11.0, "address": "1546 WALTON RD", "type": "Campaigning Permitted", "location": "BARRINGER ACADEMIC CENTER - MULTI-PURPOSE ROOM" }, "geometry": { "type": "Point", "coordinates": [ 1435609.997308388352394, 537408.999849811196327 ] } },
{ "type": "Feature", "properties": { "precno": 32.0, "name": "CHRIST EPISCOPAL CHURCH", "city": "CHARLOTTE", "zone": 5.0, "address": "1412 PROVIDENCE RD", "type": "Restricted", "location": "CHRIST EPISCOPAL CHURCH - ALL SAINTS HALL" }, "geometry": { "type": "Point", "coordinates": [ 1455243.997410386800766, 528251.000121220946312 ] } },
{ "type": "Feature", "properties": { "precno": 33.0, "name": "EASTWAY MIDDLE SCHOOL", "city": "CHARLOTTE", "zone": 12.0, "address": "1501 NORLAND RD", "type": "Campaigning Permitted", "location": "EASTWAY MIDDLE SCHOOL - GYM" }, "geometry": { "type": "Point", "coordinates": [ 1469378.997355550527573, 536202.999965220689774 ] } },
{ "type": "Feature", "properties": { "precno": 34.0, "name": "OAKHURST STEAM ACADEMY", "city": "CHARLOTTE", "zone": 5.0, "address": "4511 MONROE RD", "type": "Restricted", "location": "OAKHURST STEAM ACADEMY - CAFETERIA" }, "geometry": { "type": "Point", "coordinates": [ 1467015.601819887757301, 530616.854313388466835 ] } },
{ "type": "Feature", "properties": { "precno": 35.0, "name": "COTSWOLD ELEMENTARY SCHOOL", "city": "CHARLOTTE", "zone": 5.0, "address": "300 GREENWICH RD", "type": "Campaigning Permitted", "location": "COTSWOLD ELEMENTARY SCHOOL - GYM" }, "geometry": { "type": "Point", "coordinates": [ 1462932.997452303767204, 525067.999925553798676 ] } },
{ "type": "Feature", "properties": { "precno": 36.0, "name": "PROVIDENCE BAPTIST CHURCH", "city": "CHARLOTTE", "zone": 5.0, "address": "4921 RANDOLPH RD", "type": "Restricted", "location": "PROVIDENCE BAPTIST CHURCH - FELLOWSHIP HALL" }, "geometry": { "type": "Point", "coordinates": [ 1463661.997306630015373, 521453.999935731291771 ] } },
{ "type": "Feature", "properties": { "precno": 37.0, "name": "PINEWOOD ELEMENTARY SCHOOL", "city": "CHARLOTTE", "zone": 11.0, "address": "805 SENECA PL", "type": "Campaigning Permitted", "location": "PINEWOOD ELEMENTARY SCHOOL - GYM" }, "geometry": { "type": "Point", "coordinates": [ 1442867.997228056192398, 520581.000041306018829 ] } },
{ "type": "Feature", "properties": { "precno": 10.0, "name": "HOLY TRINITY GREEK ORTHODOX CATHEDRAL", "city": "CHARLOTTE", "zone": 11.0, "address": "600 EAST BLVD", "type": "Restricted", "location": "HOLY TRINITY GREEK ORTHODOX CATHEDRAL - SOCIAL HALL" }, "geometry": { "type": "Point", "coordinates": [ 1446496.997515976428986, 535596.999864891171455 ] } },
{ "type": "Feature", "properties": { "precno": 6.0, "name": "AMITY PRESBYTERIAN CHURCH", "city": "CHARLOTTE", "zone": 9.0, "address": "2831 N SHARON AMITY RD", "type": "Restricted", "location": "AMITY PRESBYTERIAN CHURCH - FELLOWSHIP HALL" }, "geometry": { "type": "Point", "coordinates": [ 1473310.997365549206734, 531704.000104978680611 ] } },
{ "type": "Feature", "properties": { "precno": 9.0, "name": "COVENANT PRESBYTERIAN CHURCH", "city": "CHARLOTTE", "zone": 11.0, "address": "1000 E MOREHEAD ST", "type": "Restricted", "location": "COVENANT PRESBYTERIAN CHURCH - FELLOWSHIP HALL" }, "geometry": { "type": "Point", "coordinates": [ 1449360.997365385293961, 537176.999985724687576 ] } },
{ "type": "Feature", "properties": { "precno": 11.0, "name": "GREATER MOUNT MORIAH BAPTIST CHURCH", "city": "CHARLOTTE", "zone": 8.0, "address": "727 W TRADE ST", "type": "Partially Restricted/No Signs", "location": "GREATER MOUNT MORIAH BAPTIST CHURCH - FAMILY LIFE" }, "geometry": { "type": "Point", "coordinates": [ 1447535.997406467795372, 544718.999993562698364 ] } },
{ "type": "Feature", "properties": { "precno": 14.0, "name": "HAWTHORNE ACADEMY", "city": "CHARLOTTE", "zone": 12.0, "address": "1411 HAWTHORNE LN", "type": "Campaigning Permitted", "location": "HAWTHORNE ACADEMY - MULTIPURPOSE ROOM" }, "geometry": { "type": "Point", "coordinates": [ 1458184.000060558319092, 543185.000108808279037 ] } },
{ "type": "Feature", "properties": { "precno": 26.0, "name": "EBENEZER BAPTIST CHURCH", "city": "CHARLOTTE", "zone": 3.0, "address": "2020 W SUGAR CREEK RD", "type": "Restricted", "location": "EBENEZER BAPTIST CHURCH - FELLOWSHIP HALL" }, "geometry": { "type": "Point", "coordinates": [ 1464328.999909639358521, 565634.000158220529556 ] } },
{ "type": "Feature", "properties": { "precno": 30.0, "name": "PLAZA ROAD CHILDREN'S ACADEMY", "city": "CHARLOTTE", "zone": 3.0, "address": "1000 ANDERSON ST", "type": "Campaigning Permitted", "location": "PLAZA ROAD CHILDREN'S ACADEMY - GYM" }, "geometry": { "type": "Point", "coordinates": [ 1464140.997332885861397, 548788.000057637691498 ] } },
{ "type": "Feature", "properties": { "precno": 2.0, "name": "ST JOHN'S BAPTIST CHURCH", "city": "CHARLOTTE", "zone": 12.0, "address": "300 HAWTHORNE LN", "type": "Restricted", "location": "ST JOHN'S BAPTIST CHURCH - BROACH HALL" }, "geometry": { "type": "Point", "coordinates": [ 1455310.99727638065815, 537785.000082060694695 ] } },
{ "type": "Feature", "properties": { "precno": 16.0, "name": "EAST STONEWALL AME ZION CHURCH", "city": "CHARLOTTE", "zone": 8.0, "address": "1729 GRIERS GROVE RD", "type": "Campaigning Permitted", "location": "EAST STONEWALL AME ZION CHURCH - FAMILY LIFE CENTER" }, "geometry": { "type": "Point", "coordinates": [ 1444450.997342884540558, 563367.000099062919617 ] } },
{ "type": "Feature", "properties": { "precno": 22.0, "name": "GREATER GALILEE BAPTIST CHURCH", "city": "CHARLOTTE", "zone": 11.0, "address": "501 W PARK AV", "type": "Partially Restricted/No Signs", "location": "GREATER GALILEE BAPTIST CHURCH" }, "geometry": { "type": "Point", "coordinates": [ 1443415.872772723436356, 539431.319295972585678 ] } },
{ "type": "Feature", "properties": { "precno": 28.0, "name": "NEW COVENANT ARP CHURCH", "city": "CHARLOTTE", "zone": 12.0, "address": "2541 ELKWOOD CIR", "type": "Restricted", "location": "NEW COVENANT ARP CHURCH - FELLOWSHIP HALL" }, "geometry": { "type": "Point", "coordinates": [ 1467198.997450470924377, 546713.999940559267998 ] } },
{ "type": "Feature", "properties": { "precno": 17.0, "name": "BILLINGSVILLE ELEMENTARY SCHOOL", "city": "CHARLOTTE", "zone": 5.0, "address": "124 SKYLAND AVE", "type": "Campaigning Permitted", "location": "BILLINGSVILLE ELEMENTARY SCHOOL - GYM" }, "geometry": { "type": "Point", "coordinates": [ 1459437.99722446501255, 531341.99984472990036 ] } },
{ "type": "Feature", "properties": { "precno": 38.0, "name": "COLLINSWOOD ELEMENTARY SCHOOL", "city": "CHARLOTTE", "zone": 11.0, "address": "4000 APPLEGATE RD", "type": "Campaigning Permitted", "location": "COLLINSWOOD ELEMENTARY SCHOOL - GYM" }, "geometry": { "type": "Point", "coordinates": [ 1440875.997275054454803, 527457.000068813562393 ] } },
{ "type": "Feature", "properties": { "precno": 39.0, "name": "SOUTHVIEW RECREATION CENTER", "city": "CHARLOTTE", "zone": 6.0, "address": "1720 VILMA ST", "type": "Campaigning Permitted", "location": "SOUTHVIEW RECREATION CENTER - GYM" }, "geometry": { "type": "Point", "coordinates": [ 1427479.997492298483849, 537370.999925807118416 ] } },
{ "type": "Feature", "properties": { "precno": 40.0, "name": "THOMASBORO ELEMENTARY SCHOOL", "city": "CHARLOTTE", "zone": 2.0, "address": "538 BRADFORD DR", "type": "Campaigning Permitted", "location": "THOMASBORO ELEMENTARY SCHOOL - GYM" }, "geometry": { "type": "Point", "coordinates": [ 1433238.997457221150398, 553302.999885886907578 ] } },
{ "type": "Feature", "properties": { "precno": 42.0, "name": "HIDDEN VALLEY ELEMENTARY SCHOOL", "city": "CHARLOTTE", "zone": 3.0, "address": "5100 SNOW WHITE LN", "type": "Campaigning Permitted", "location": "HIDDEN VALLEY SCHOOL - MULTI-PURPOSE ROOM" }, "geometry": { "type": "Point", "coordinates": [ 1467451.997272551059723, 557308.000077977776527 ] } },
{ "type": "Feature", "properties": { "precno": 44.0, "name": "SHAMROCK GARDENS ELEMENTARY SCHOOL", "city": "CHARLOTTE", "zone": 12.0, "address": "3301 COUNTRY CLUB DR", "type": "Campaigning Permitted", "location": "SHAMROCK GARDENS ELEMENTARY SCHOOL - MEDIA CENTER" }, "geometry": { "type": "Point", "coordinates": [ 1465993.997235804796219, 544881.999995648860931 ] } },
{ "type": "Feature", "properties": { "precno": 45.0, "name": "WINDSOR PARK ELEMENTARY", "city": "CHARLOTTE", "zone": 12.0, "address": "3910 SUDBURY RD", "type": "Campaigning Permitted", "location": "WINDSOR PARK ELEMENTARY SCHOOL - MULTI-PURPOSE ROOM" }, "geometry": { "type": "Point", "coordinates": [ 1474441.997400134801865, 540791.999973565340042 ] } },
{ "type": "Feature", "properties": { "precno": 47.0, "name": "MINT MUSEUM RANDOLPH", "city": "CHARLOTTE", "zone": 5.0, "address": "2730 RANDOLPH RD", "type": "Campaigning Permitted", "location": "MINT MUESUM - IVEY ROOM" }, "geometry": { "type": "Point", "coordinates": [ 1457925.999920383095741, 531703.000106975436211 ] } },
{ "type": "Feature", "properties": { "precno": 48.0, "name": "PROVIDENCE UNITED METHODIST CHURCH", "city": "CHARLOTTE", "zone": 5.0, "address": "2810 PROVIDENCE RD", "type": "Partially Restricted/No Signs", "location": "PROVIDENCE UNITED METHODIST CHURCH - LOWER LEVEL" }, "geometry": { "type": "Point", "coordinates": [ 1459218.997334390878677, 522207.000070139765739 ] } },
{ "type": "Feature", "properties": { "precno": 50.0, "name": "TYVOLA SENIOR CENTER", "city": "CHARLOTTE", "zone": 11.0, "address": "2225 TYVOLA RD", "type": "Unrestricted", "location": "TYVOLA SENIOR CENTER - MULTI-PURPOSE ROOM" }, "geometry": { "type": "Point", "coordinates": [ 1444271.000655636191368, 518406.000126227736473 ] } },
{ "type": "Feature", "properties": { "precno": 53.0, "name": "GREATER FELLOWSHIP MISSIONARY BAPTIST CHURCH", "city": "CHARLOTTE", "zone": 2.0, "address": "2422 ASHLEY RD", "type": "Restricted", "location": "GREATER FELLOWSHIP MISSIONARY BAPTIST CHURCH-FELLOWSHIP HALL" }, "geometry": { "type": "Point", "coordinates": [ 1434413.997403800487518, 543982.000155225396156 ] } },
{ "type": "Feature", "properties": { "precno": 54.0, "name": "OAKLAWN LANGAUGE ACADEMY", "city": "CHARLOTTE", "zone": 8.0, "address": "1810 OAKLAWN AVE", "type": "Campaigning Permitted", "location": "OAKLAWN LANGUAGE ACADEMY - GYM" }, "geometry": { "type": "Point", "coordinates": [ 1447685.997434556484222, 551448.999984979629517 ] } },
{ "type": "Feature", "properties": { "precno": 55.0, "name": "LINCOLN HEIGHTS ELEMENTARY SCHOOL", "city": "CHARLOTTE", "zone": 8.0, "address": "1900 NEWCASTLE ST", "type": "Campaigning Permitted", "location": "LINCOLN HEIGHTS ELEMENTARY SCHOOL - CAFETERIA" }, "geometry": { "type": "Point", "coordinates": [ 1450064.997269719839096, 554268.999922394752502 ] } },
{ "type": "Feature", "properties": { "precno": 56.0, "name": "DRUID HILLS ELEMENTARY SCHOOL", "city": "CHARLOTTE", "zone": 8.0, "address": "2801 LUCENA ST", "type": "Campaigning Permitted", "location": "DRUID HILLS ELEMENTARY SCHOOL - MULTI-PURPOSE ROOM" }, "geometry": { "type": "Point", "coordinates": [ 1455414.997396469116211, 553512.0001240670681 ] } },
{ "type": "Feature", "properties": { "precno": 57.0, "name": "SHARON PRESBYTERIAN CHURCH", "city": "CHARLOTTE", "zone": 5.0, "address": "5201 SHARON RD", "type": "Restricted", "location": "SHARON PRESBYTERIAN CHURCH - GYM" }, "geometry": { "type": "Point", "coordinates": [ 1451783.99744063615799, 511178.000146567821503 ] } },
{ "type": "Feature", "properties": { "precno": 58.0, "name": "STARMOUNT ADMINISTRATIVE CENTER", "city": "CHARLOTTE", "zone": 11.0, "address": "1600 BROOKDALE AVE", "type": "Campaigning Permitted", "location": "STARMOUNT ACADEMY OF EXCELLENCE" }, "geometry": { "type": "Point", "coordinates": [ 1440826.997373059391975, 511037.00010047852993 ] } },
{ "type": "Feature", "properties": { "precno": 59.0, "name": "MONTCLAIR ELEMENTARY SCHOOL", "city": "CHARLOTTE", "zone": 11.0, "address": "5801 FARMBROOK DR", "type": "Campaigning Permitted", "location": "MONTCLAIRE ELEMENTARY SCHOOL - GYM" }, "geometry": { "type": "Point", "coordinates": [ 1442073.997503727674484, 515525.999980732798576 ] } },
{ "type": "Feature", "properties": { "precno": 60.0, "name": "BRIARWOOD ELEMENTARY SCHOOL", "city": "CHARLOTTE", "zone": 3.0, "address": "1001 WILANN DR", "type": "Campaigning Permitted", "location": "BRIARWOOD ELEMENTARY SCHOOL - CAFETERIA" }, "geometry": { "type": "Point", "coordinates": [ 1472935.997459381818771, 551269.000016897916794 ] } },
{ "type": "Feature", "properties": { "precno": 61.0, "name": "CHARLOTTE MUSEUM OF HISTORY", "city": "CHARLOTTE", "zone": 12.0, "address": "3500 SHAMROCK DR", "type": "Partially Restricted/No Signs", "location": "CHARLOTTE MUSEUM OF HISTORY" }, "geometry": { "type": "Point", "coordinates": [ 1472529.288955226540565, 544611.999879479408264 ] } },
{ "type": "Feature", "properties": { "precno": 62.0, "name": "ALBEMARLE ROAD ELEMENTARY SCHOOL", "city": "CHARLOTTE", "zone": 4.0, "address": "7800 RIDING TRAIL RD", "type": "Campaigning Permitted", "location": "ALBEMARLE ROAD ELEMENTARY SCHOOL - MULTI-PURPOSE ROOM" }, "geometry": { "type": "Point", "coordinates": [ 1483354.997290641069412, 531184.000160723924637 ] } },
{ "type": "Feature", "properties": { "precno": 63.0, "name": "IDLEWILD ELEMENTARY", "city": "CHARLOTTE", "zone": 9.0, "address": "7101 IDLEWILD RD", "type": "Unrestricted", "location": "IDLEWILD ELEMENTARY - GYMNASIUM" }, "geometry": { "type": "Point", "coordinates": [ 1479135.000153213739395, 527536.999908804893494 ] } },
{ "type": "Feature", "properties": { "precno": 64.0, "name": "BEN SALEM PRESBYTERIAN CHURCH", "city": "CHARLOTTE", "zone": 9.0, "address": "6801 MONROE RD", "type": "Campaigning Permitted", "location": "BEN SALEM PRESBYTERIAN CHURCH - FELLOWSHIP HALL" }, "geometry": { "type": "Point", "coordinates": [ 1475318.997286558151245, 523338.00010472536087 ] } },
{ "type": "Feature", "properties": { "precno": 65.0, "name": "SARDIS PRESBYTERIAN CHURCH", "city": "CHARLOTTE", "zone": 9.0, "address": "6100 SARDIS RD", "type": "Restricted", "location": "SARDIS PRESBYTERIAN CHURCH - EDUCATION BUILDING" }, "geometry": { "type": "Point", "coordinates": [ 1468840.997447296977043, 517052.999879479408264 ] } },
{ "type": "Feature", "properties": { "precno": 66.0, "name": "RAMA ROAD ELEMENTARY SCHOOL", "city": "CHARLOTTE", "zone": 9.0, "address": "1035 RAMA RD", "type": "Campaigning Permitted", "location": "RAMA ROAD ELEMENTARY SCHOOL - GYM" }, "geometry": { "type": "Point", "coordinates": [ 1470465.997478142380714, 521360.000123724341393 ] } },
{ "type": "Feature", "properties": { "precno": 67.0, "name": "LANSDOWNE ELEMENTARY SCHOOL", "city": "CHARLOTTE", "zone": 9.0, "address": "6400 PRETT CT", "type": "Campaigning Permitted", "location": "LANSDOWNE ELEMENTARY SCHOOL - MULTI-PURPOSE ROOM" }, "geometry": { "type": "Point", "coordinates": [ 1467290.997266471385956, 511778.999928817152977 ] } },
{ "type": "Feature", "properties": { "precno": 70.0, "name": "REFORMED THEOLOGICAL SEMINARY", "city": "CHARLOTTE", "zone": 5.0, "address": "2101 CARMEL RD", "type": "Restricted", "location": "REFORMED THEOLOGICAL SEMINARY" }, "geometry": { "type": "Point", "coordinates": [ 1460915.99722121655941, 509920.000037893652916 ] } },
{ "type": "Feature", "properties": { "precno": 71.0, "name": "SHARON ELEMENTARY SCHOOL", "city": "CHARLOTTE", "zone": 5.0, "address": "4330 FOXCROFT RD", "type": "Campaigning Permitted", "location": "SHARON ELEMENTARY SCHOOL - MULTI-PURPOSE ROOM" }, "geometry": { "type": "Point", "coordinates": [ 1456810.997229143977165, 515595.999840721487999 ] } },
{ "type": "Feature", "properties": { "precno": 72.0, "name": "CARMEL PRESBYTERIAN CHURCH", "city": "CHARLOTTE", "zone": 5.0, "address": "2048 CARMEL RD", "type": "Restricted", "location": "CARMEL PRESBYTERIAN CHURCH - LIGON HALL" }, "geometry": { "type": "Point", "coordinates": [ 1460724.997275143861771, 510457.999946147203445 ] } },
{ "type": "Feature", "properties": { "precno": 73.0, "name": "HEATHSTEAD COMMUNITY CENTER", "city": "CHARLOTTE", "zone": 10.0, "address": "6140 HEATH RIDGE CT", "type": "Restricted", "location": "HEATHSTEAD COMMUNITY CENTER - CLUBHOUSE" }, "geometry": { "type": "Point", "coordinates": [ 1452032.997270718216896, 507521.999912649393082 ] } },
{ "type": "Feature", "properties": { "precno": 74.0, "name": "ALEXANDER GRAHAM MIDDLE SCHOOL", "city": "CHARLOTTE", "zone": 11.0, "address": "1800 RUNNYMEDE LN", "type": "Campaigning Permitted", "location": "ALEXANDER GRAHAM MIDDLE SCHOOL - MULTI-PURPOSE ROOM" }, "geometry": { "type": "Point", "coordinates": [ 1452253.997484892606735, 520696.000139400362968 ] } },
{ "type": "Feature", "properties": { "precno": 43.0, "name": "GARINGER HIGH SCHOOL", "city": "CHARLOTTE", "zone": 3.0, "address": "1100 EASTWAY DR", "type": "Campaigning Permitted", "location": "GARINGER HIGH SCHOOL - GYM" }, "geometry": { "type": "Point", "coordinates": [ 1467967.997224807739258, 547458.00009298324585 ] } },
{ "type": "Feature", "properties": { "precno": 46.0, "name": "WTVI TELEVISON STATION", "city": "CHARLOTTE", "zone": 12.0, "address": "3242 COMMONWEALTH AVE", "type": "Restricted", "location": "WTVI TELEVISION STATION - BOARD ROOM" }, "geometry": { "type": "Point", "coordinates": [ 1464869.997515305876732, 535135.000132724642754 ] } },
{ "type": "Feature", "properties": { "precno": 49.0, "name": "PARK ROAD MONTESSORI SCHOOL", "city": "CHARLOTTE", "zone": 11.0, "address": "3701 HAVEN DR", "type": "Campaigning Permitted", "location": "PARK ROAD MONTESSORI - MEDIA CENTER" }, "geometry": { "type": "Point", "coordinates": [ 1447597.997282475233078, 524759.999885395169258 ] } },
{ "type": "Feature", "properties": { "precno": 51.0, "name": "SALVATION ARMY CLUB", "city": "CHARLOTTE", "zone": 11.0, "address": "940 MARSH ROAD", "type": "Restricted", "location": "SALVATION ARMY CLUB - GYM" }, "geometry": { "type": "Point", "coordinates": [ 1445131.997293218970299, 528014.999937057495117 ] } },
{ "type": "Feature", "properties": { "precno": 68.0, "name": "ST STEPHEN UNITED METHODIST CHURCH", "city": "CHARLOTTE", "zone": 9.0, "address": "6800 SARDIS RD", "type": "Restricted", "location": "ST STEPHEN UNITED METHODIST CHURCH - ROOM 200" }, "geometry": { "type": "Point", "coordinates": [ 1469942.912566304206848, 513268.658038720488548 ] } },
{ "type": "Feature", "properties": { "precno": 69.0, "name": "OLDE PROVIDENCE ELEMENTARY SCHOOL", "city": "CHARLOTTE", "zone": 7.0, "address": "3800 REA RD", "type": "Campaigning Permitted", "location": "OLDE PROVIDENCE SCHOOL - MEDIA CENTER" }, "geometry": { "type": "Point", "coordinates": [ 1462160.99735589325428, 500074.000044897198677 ] } },
{ "type": "Feature", "properties": { "precno": 52.0, "name": "ST MARK'S UNITED METHODIST CHURCH", "city": "CHARLOTTE", "zone": 6.0, "address": "917 CLANTON RD", "type": "Campaigning Permitted", "location": "ST MARK'S UNITED METHODIST CHURCH - FELLOWSHIP HALL" }, "geometry": { "type": "Point", "coordinates": [ 1436130.997250631451607, 532639.999873399734497 ] } },
{ "type": "Feature", "properties": { "precno": 75.0, "name": "SOUTH PARK CHRISTIAN CHURCH", "city": "CHARLOTTE", "zone": 10.0, "address": "6650 PARK SOUTH DR", "type": "Restricted", "location": "SOUTH PARK CHRISTIAN CHURCH-SANCTUARY" }, "geometry": { "type": "Point", "coordinates": [ 1447421.999931052327156, 511281.999938562512398 ] } },
{ "type": "Feature", "properties": { "precno": 76.0, "name": "FOREST HILL CHURCH", "city": "CHARLOTTE", "zone": 10.0, "address": "7224 PARK ROAD", "type": "Restricted", "location": "FOREST HILL CHURCH - EXPLORATORIUM" }, "geometry": { "type": "Point", "coordinates": [ 1444836.997227057814598, 509351.999861553311348 ] } },
{ "type": "Feature", "properties": { "precno": 77.0, "name": "CPCC HARPER CAMPUS", "city": "CHARLOTTE", "zone": 6.0, "address": "315 W HEBRON ST", "type": "Campaigning Permitted", "location": "CPCC HARPER CAMPUS - CONFERENCE ROOM HP112" }, "geometry": { "type": "Point", "coordinates": [ 1433264.000031888484955, 507521.999912649393082 ] } },
{ "type": "Feature", "properties": { "precno": 78.0, "name": "ALDERSGATE UNITED METHODIST CHURCH", "city": "CHARLOTTE", "zone": 6.0, "address": "5338 NATIONS FORD RD", "type": "Restricted", "location": "ALDERSGATE UNITED METHODIST CHURCH - FELLOWSHIP HALL" }, "geometry": { "type": "Point", "coordinates": [ 1434540.997477889060974, 523912.999938979744911 ] } },
{ "type": "Feature", "properties": { "precno": 79.0, "name": "TUCKASEEGEE ELEMENTARY SCHOOL", "city": "CHARLOTTE", "zone": 2.0, "address": "2028 LITTLE ROCK RD", "type": "Campaigning Permitted", "location": "TUCKASEEGEE ELEMENTARY SCHOOL - MULTI-PURPOSE ROOM" }, "geometry": { "type": "Point", "coordinates": [ 1420615.997440800070763, 551379.000124976038933 ] } },
{ "type": "Feature", "properties": { "precno": 80.0, "name": "THRIFT BAPTIST CHURCH", "city": "CHARLOTTE", "zone": 2.0, "address": "8415 MOORES CHAPEL RD", "type": "Campaigning Permitted", "location": "THRIFT BAPTIST CHURCH - TROY HARKEY FELLOWSHIP HALL" }, "geometry": { "type": "Point", "coordinates": [ 1419179.997360050678253, 560661.999931648373604 ] } },
{ "type": "Feature", "properties": { "precno": 81.0, "name": "ALLENBROOK ELEMENTARY SCHOOL", "city": "CHARLOTTE", "zone": 2.0, "address": "1430 ALLENBROOK DR", "type": "Campaigning Permitted", "location": "ALLENBROOK ELEMENTARY SCHOOL - MULTI-PURPOSE ROOM" }, "geometry": { "type": "Point", "coordinates": [ 1428361.997368723154068, 555688.000037148594856 ] } },
{ "type": "Feature", "properties": { "precno": 83.0, "name": "ALBEMARLE ROAD PRESBYTERIAN CHURCH", "city": "CHARLOTTE", "zone": 4.0, "address": "6740 ALBEMARLE RD", "type": "Restricted", "location": "ALBEMARLE ROAD PRESBYTERIAN CHURCH - GYM" }, "geometry": { "type": "Point", "coordinates": [ 1483551.997224718332291, 532811.999857470393181 ] } },
{ "type": "Feature", "properties": { "precno": 85.0, "name": "CHARLOTTE SECONDARY SCHOOL", "city": "CHARLOTTE", "zone": 9.0, "address": "8601 MCALPINE PARK DR", "type": "Unrestricted", "location": "CHARLOTTE SECONDARY SCHOOL - GYM" }, "geometry": { "type": "Point", "coordinates": [ 1477254.999976217746735, 514796.000128388404846 ] } },
{ "type": "Feature", "properties": { "precno": 86.0, "name": "CARMEL MIDDLE SCHOOL", "city": "CHARLOTTE", "zone": 7.0, "address": "5001 CAMILLA DR", "type": "Campaigning Permitted", "location": "CARMEL MIDDLE SCHOOL - MEDIA CENTER" }, "geometry": { "type": "Point", "coordinates": [ 1460484.997427046298981, 506719.999876230955124 ] } },
{ "type": "Feature", "properties": { "precno": 87.0, "name": "PINEVILLE CHURCH OF THE NAZARENE", "city": "CHARLOTTE", "zone": 10.0, "address": "8614 PINEVILLE-MATTHEWS RD", "type": "Restricted", "location": "PINEVILLE CHURCH OF THE NAZARENE - GYM" }, "geometry": { "type": "Point", "coordinates": [ 1442153.997343719005585, 492396.999978974461555 ] } },
{ "type": "Feature", "properties": { "precno": 88.0, "name": "LIVING SAVIOUR LUTHERAN CHURCH", "city": "CHARLOTTE", "zone": 10.0, "address": "6817 CARMEL RD", "type": "Restricted", "location": "LIVING SAVIOUR LUTHERAN CHURCH - FELLOWSHIP HALL" }, "geometry": { "type": "Point", "coordinates": [ 1447486.997504472732544, 490042.000095814466476 ] } },
{ "type": "Feature", "properties": { "precno": 89.0, "name": "COULWOOD MIDDLE SCHOOL", "city": "CHARLOTTE", "zone": 2.0, "address": "500 KENTBERRY DR", "type": "Campaigning Permitted", "location": "COULWOOD MIDDLE SCHOOL - LIBRARY MEDIA CENTER" }, "geometry": { "type": "Point", "coordinates": [ 1419824.997382387518883, 571324.999931067228317 ] } },
{ "type": "Feature", "properties": { "precno": 90.0, "name": "SOUTH CHARLOTTE MIDDLE SCHOOL", "city": "CHARLOTTE", "zone": 7.0, "address": "8040 STRAWBERRY LN", "type": "Campaigning Permitted", "location": "SOUTH CHARLOTTE MIDDLE SCHOOL - DANCE ROOM" }, "geometry": { "type": "Point", "coordinates": [ 1461814.99739171564579, 492774.999879136681557 ] } },
{ "type": "Feature", "properties": { "precno": 91.0, "name": "PROVIDENCE PRESBYTERIAN CHURCH", "city": "CHARLOTTE", "zone": 7.0, "address": "10140 PROVIDENCE CHURCH LN", "type": "Restricted", "location": "PROVIDENCE PRESBYTERIAN CHURCH - FELLOWSHIP HALL" }, "geometry": { "type": "Point", "coordinates": [ 1469658.997451722621918, 485818.000013649463654 ] } },
{ "type": "Feature", "properties": { "precno": 92.0, "name": "QUAIL HOLLOW PRESBYTERIAN CHURCH", "city": "CHARLOTTE", "zone": 10.0, "address": "8801 PARK ROAD", "type": "Restricted", "location": "QUAIL HOLLOW PRESBYTERIAN CHURCH - FELLOWSHIP HALL" }, "geometry": { "type": "Point", "coordinates": [ 1444845.997537136077881, 500733.000039234757423 ] } },
{ "type": "Feature", "properties": { "precno": 93.0, "name": "CHURCH OF JESUS CHRIST OF LATTER DAY SAINTS", "city": "CHARLOTTE", "zone": 10.0, "address": "5815 CARMEL RD", "type": "Restricted", "location": "CHURCH OF JESUS CHRIST LATTER DAY SAINTS - GYM" }, "geometry": { "type": "Point", "coordinates": [ 1450191.997343808412552, 495619.000096648931503 ] } },
{ "type": "Feature", "properties": { "precno": 95.0, "name": "HICKORY GROVE UNITED METHODIST CHURCH", "city": "CHARLOTTE", "zone": 4.0, "address": "6401 HICKORY GROVE RD", "type": "Restricted", "location": "HICKORY GROVE UNITED METHODIST CHURCH - GYM" }, "geometry": { "type": "Point", "coordinates": [ 1485970.997307971119881, 541702.000122055411339 ] } },
{ "type": "Feature", "properties": { "precno": 100.0, "name": "WESLEY UNITED METHODIST CHURCH", "city": "CHARLOTTE", "zone": 7.0, "address": "3715 REA RD", "type": "Restricted", "location": "WESLEY UNITED METHODIST CHURCH - FELLOWSHIP HALL" }, "geometry": { "type": "Point", "coordinates": [ 1462462.000690892338753, 499590.000684812664986 ] } },
{ "type": "Feature", "properties": { "precno": 102.0, "name": "BIBLE BAPTIST CHURCH", "city": "MATTHEWS", "zone": 9.0, "address": "2724 MARGARET WALLACE RD", "type": "Restricted", "location": "BIBLE BAPTIST CHURCH - GYM" }, "geometry": { "type": "Point", "coordinates": [ 1482883.997248381376266, 517613.000071808695793 ] } },
{ "type": "Feature", "properties": { "precno": 103.0, "name": "CROSS AND CROWN LUTHERAN CHURCH", "city": "MATTHEWS", "zone": 7.0, "address": "300 PINEVILLE-MATTHEWS RD", "type": "Restricted", "location": "CROSS AND CROWN LUTHERAN CHURCH - FELLOWSHIP HALL" }, "geometry": { "type": "Point", "coordinates": [ 1478997.997474476695061, 502154.000149980187416 ] } },
{ "type": "Feature", "properties": { "precno": 104.0, "name": "DEVONSHIRE ELEMENTARY SCHOOL", "city": "CHARLOTTE", "zone": 12.0, "address": "6500 BARRINGTON DR", "type": "Campaigning Permitted", "location": "DEVONSHIRE ELEMENTARY SCHOOL - GYM" }, "geometry": { "type": "Point", "coordinates": [ 1478772.997268304228783, 548772.000089645385742 ] } },
{ "type": "Feature", "properties": { "precno": 105.0, "name": "NEWELL ELEMENTARY SCHOOL", "city": "CHARLOTTE", "zone": 3.0, "address": "325 W ROCKY RIVER RD", "type": "Campaigning Permitted", "location": "NEWELL ELEMENTARY SCHOOL - MULTI-PURPOSE ROOM" }, "geometry": { "type": "Point", "coordinates": [ 1476417.000011801719666, 564019.000107392668724 ] } },
{ "type": "Feature", "properties": { "precno": 106.0, "name": "MCCLINTOCK MIDDLE SCHOOL", "city": "CHARLOTTE", "zone": 9.0, "address": "1925 RAMA ROAD", "type": "Campaigning Permitted", "location": "MCCLINTOCK MIDDLE SCHOOL - GYM" }, "geometry": { "type": "Point", "coordinates": [ 1471509.99735863506794, 525055.999949559569359 ] } },
{ "type": "Feature", "properties": { "precno": 107.0, "name": "ROCKWELL AME ZION CHURCH", "city": "CHARLOTTE", "zone": 3.0, "address": "6301 ROCKWELL CHURCH RD", "type": "Partially Restricted/No Signs", "location": "ROCKWELL AME ZION CHURCH - FELLOWSHIP HALL" }, "geometry": { "type": "Point", "coordinates": [ 1460519.997357055544853, 570348.999914556741714 ] } },
{ "type": "Feature", "properties": { "precno": 108.0, "name": "HICKORY GROVE BAPTIST CHURCH", "city": "CHARLOTTE", "zone": 4.0, "address": "6050 HICKORY GROVE RD", "type": "Restricted", "location": "HICKORY GROVE BAPTIST CHURCH - FAMILY LIFE CENER (ROOM 2102)" }, "geometry": { "type": "Point", "coordinates": [ 1484715.997521385550499, 539865.999857068061829 ] } },
{ "type": "Feature", "properties": { "precno": 109.0, "name": "HAWTHORNE RECREATION CENTER", "city": "CHARLOTTE", "zone": 12.0, "address": "345 HAWTHORNE LN", "type": "Campaigning Permitted", "location": "HAWTHORNE RECREATION CENTER - GYM" }, "geometry": { "type": "Point", "coordinates": [ 1455527.99749855697155, 538352.999930307269096 ] } },
{ "type": "Feature", "properties": { "precno": 110.0, "name": "CHURCH AT CHARLOTTE", "city": "CHARLOTTE", "zone": 7.0, "address": "2500 CARMEL ROAD", "type": "Restricted", "location": "CHURCH AT CHARLOTTE - MULTI-PURPOSE ROOM" }, "geometry": { "type": "Point", "coordinates": [ 1459091.997260302305222, 508572.000109225511551 ] } },
{ "type": "Feature", "properties": { "precno": 84.0, "name": "LAWRENCE ORR ELEMENTARY SCHOOL", "city": "CHARLOTTE", "zone": 12.0, "address": "4835 SHAMROCK DR", "type": "Campaigning Permitted", "location": "LAWRENCE ORR ELEMENTARY SCHOOL" }, "geometry": { "type": "Point", "coordinates": [ 1479212.886152297258377, 541706.86100472509861 ] } },
{ "type": "Feature", "properties": { "precno": 96.0, "name": "GREYLYN BUSINESS PARK", "city": "CHARLOTTE", "zone": 9.0, "address": "9129 MONROE RD", "type": "Unrestricted", "location": "GREYLYN BUSINESS PARK - SUITE 105" }, "geometry": { "type": "Point", "coordinates": [ 1479095.723656967282295, 512824.344950973987579 ] } },
{ "type": "Feature", "properties": { "precno": 94.0, "name": "ALBEMARLE ROAD RECREATION CENTER", "city": "CHARLOTTE", "zone": 4.0, "address": "5027 IDLEWILD RD N", "type": "Campaigning Permitted", "location": "ALBEMARLE ROAD RECREATION CENTER - GYM" }, "geometry": { "type": "Point", "coordinates": [ 1484718.997515380382538, 530758.000028476119041 ] } },
{ "type": "Feature", "properties": { "precno": 97.0, "name": "SHARON SOUTH HOMES CLUBHOUSE", "city": "CHARLOTTE", "zone": 10.0, "address": "8437 KNIGHTS BRIDGE RD", "type": "Partially Restricted/No Signs", "location": "SHARON SOUTH HOMES CLUBHOUSE - MAIN ROOM" }, "geometry": { "type": "Point", "coordinates": [ 1439968.997448638081551, 502345.000096067786217 ] } },
{ "type": "Feature", "properties": { "precno": 98.0, "name": "VICTORY CHRISTIAN CENTER", "city": "CHARLOTTE", "zone": 6.0, "address": "6916 OLD PINEVILLE RD", "type": "Restricted", "location": "VICTORY CHRISTIAN CENTER" }, "geometry": { "type": "Point", "coordinates": [ 1438183.164078056812286, 513478.687802389264107 ] } },
{ "type": "Feature", "properties": { "precno": 99.0, "name": "GREENWAY PARK ELEMENTARY SCHOOL", "city": "CHARLOTTE", "zone": 9.0, "address": "8301 MONROE RD", "type": "Campaigning Permitted", "location": "GREENWAY PARK ELEMENTARY SCHOOL - GYM" }, "geometry": { "type": "Point", "coordinates": [ 1478182.997464060783386, 516799.000059396028519 ] } },
{ "type": "Feature", "properties": { "precno": 82.0, "name": "GREENVILLE MEMORIAL AME ZION CHURCH", "city": "CHARLOTTE", "zone": 3.0, "address": "6116 MONTEITH DR", "type": "Campaigning Permitted", "location": "GREENVILLE MEMORIAL AME ZION CHURCH - FELLOWSHIP HALL" }, "geometry": { "type": "Point", "coordinates": [ 1470731.997274219989777, 557804.000070229172707 ] } },
{ "type": "Feature", "properties": { "precno": 112.0, "name": "MESSIAH LUTHERAN CHURCH", "city": "CHARLOTTE", "zone": 7.0, "address": "8300 PROVIDENCE RD", "type": "Restricted", "location": "MESSIAH LUTHERAN CHURCH - FELLOWSHIP HALL" }, "geometry": { "type": "Point", "coordinates": [ 1468228.997358977794647, 493958.000137805938721 ] } },
{ "type": "Feature", "properties": { "precno": 113.0, "name": "MCKEE ROAD BAPTIST CHURCH", "city": "CHARLOTTE", "zone": 7.0, "address": "4300 MCKEE RD", "type": "Restricted", "location": "MCKEE ROAD BAPTIST CHURCH - FAMILY LIFE CENTER" }, "geometry": { "type": "Point", "coordinates": [ 1473944.997409880161285, 484726.999899059534073 ] } },
{ "type": "Feature", "properties": { "precno": 114.0, "name": "SOUTH MECKLENBURG HIGH SCHOOL", "city": "CHARLOTTE", "zone": 10.0, "address": "8900 PARK RD", "type": "Campaigning Permitted", "location": "SOUTH MECKLENBURG HIGH SCHOOL - MEDIA CENTER" }, "geometry": { "type": "Point", "coordinates": [ 1443928.997402638196945, 500005.999852806329727 ] } },
{ "type": "Feature", "properties": { "precno": 115.0, "name": "FIRST FELLOWSHIP MINISTRIES OF CHARLOTTE", "city": "CHARLOTTE", "zone": 4.0, "address": "7700 LAWYERS RD", "type": "Partially Restricted/No Signs", "location": "FIRST FELLOWSHIP MINISTRIES OF CHARLOTTE" }, "geometry": { "type": "Point", "coordinates": [ 1487674.504399642348289, 530746.319933727383614 ] } },
{ "type": "Feature", "properties": { "precno": 116.0, "name": "LOGAN CHAPEL CME CHURCH", "city": "CHARLOTTE", "zone": 4.0, "address": "9505 PARKTON ROAD", "type": "Partially Restricted/No Signs", "location": "LOGAN CHAPEL CME CHURCH" }, "geometry": { "type": "Point", "coordinates": [ 1497296.997293725609779, 536946.000119641423225 ] } },
{ "type": "Feature", "properties": { "precno": 117.0, "name": "EAST MECKLENBURG HIGH SCHOOL", "city": "CHARLOTTE", "zone": 9.0, "address": "6800 MONROE RD", "type": "Unrestricted", "location": "MEDIA CENTER" }, "geometry": { "type": "Point", "coordinates": [ 1474890.000113055109978, 523586.999934807419777 ] } },
{ "type": "Feature", "properties": { "precno": 118.0, "name": "CARMEL BAPTIST CHURCH", "city": "CHARLOTTE", "zone": 7.0, "address": "1145 PINEVILLE-MATTHEWS RD", "type": "Restricted", "location": "CARMEL BAPTIST CHURCH - GYM" }, "geometry": { "type": "Point", "coordinates": [ 1475318.997286558151245, 500577.000023141503334 ] } },
{ "type": "Feature", "properties": { "precno": 119.0, "name": "PROVIDENCE ROAD CHURCH OF CHRIST", "city": "CHARLOTTE", "zone": 5.0, "address": "4900 PROVIDENCE RD", "type": "Restricted", "location": "PROVIDENCE ROAD CHURCH OF CHRIST - GYM" }, "geometry": { "type": "Point", "coordinates": [ 1464496.997277051210403, 513462.999841645359993 ] } },
{ "type": "Feature", "properties": { "precno": 120.0, "name": "SHARON LAKES CLUBHOUSE", "city": "CHARLOTTE", "zone": 10.0, "address": "8301 SHARON LAKES RD", "type": "Restricted", "location": "SHARON LAKES - CLUBHOUSE" }, "geometry": { "type": "Point", "coordinates": [ 1440971.997411131858826, 504011.000044897198677 ] } },
{ "type": "Feature", "properties": { "precno": 121.0, "name": "WILLIAM DAVIE PARK", "city": "CHARLOTTE", "zone": 7.0, "address": "4635 PINEVILLE-MATTHEWS RD", "type": "Campaigning Permitted", "location": "WILLIAM DAVIE PARK - MAIN ROOM" }, "geometry": { "type": "Point", "coordinates": [ 1460125.997488886117935, 491064.000020310282707 ] } },
{ "type": "Feature", "properties": { "precno": 122.0, "name": "LAKE WYLIE ELEMENTARY", "city": "CHARLOTTE", "zone": 6.0, "address": "13620 ERWIN RD", "type": "Unrestricted", "location": "LAKE WYLIE ELEMENTARY - GYM" }, "geometry": { "type": "Point", "coordinates": [ 1410420.000116303563118, 502775.999890223145485 ] } },
{ "type": "Feature", "properties": { "precno": 127.0, "name": "HOPEWELL BAPTIST CHURCH", "city": "DAVIDSON", "zone": 1.0, "address": "18841 DAVIDSON-CONCORD RD", "type": "Restricted", "location": "HOPEWELL BAPTIST CHURCH - FELLOWSHIP HALL" }, "geometry": { "type": "Point", "coordinates": [ 1459850.997382715344429, 629459.000132650136948 ] } },
{ "type": "Feature", "properties": { "precno": 129.0, "name": "PINEVILLE ELEMENTARY SCHOOL", "city": "PINEVILLE", "zone": 10.0, "address": "204 LOWRY ST", "type": "Campaigning Permitted", "location": "PINEVILLE ELEMENTARY SCHOOL - MEDIA CENTER" }, "geometry": { "type": "Point", "coordinates": [ 1435356.997486308217049, 490155.999867811799049 ] } },
{ "type": "Feature", "properties": { "precno": 130.0, "name": "COKESBURY UNITED METHODIST CHURCH", "city": "CHARLOTTE", "zone": 9.0, "address": "6701 IDLEWILD RD", "type": "Restricted", "location": "COKESBURY UNITED METHODIST CHURCH - FELLOWSHIP HALL" }, "geometry": { "type": "Point", "coordinates": [ 1477196.997467547655106, 527134.000058650970459 ] } },
{ "type": "Feature", "properties": { "precno": 131.0, "name": "CALVARY CHURCH", "city": "CHARLOTTE", "zone": 7.0, "address": "5801 PINEVILLE-MATTHEWS RD", "type": "Restricted", "location": "CALVARY CHURCH" }, "geometry": { "type": "Point", "coordinates": [ 1457231.108265548944473, 490824.055618315935135 ] } },
{ "type": "Feature", "properties": { "precno": 132.0, "name": "NEWELL PRESBYTERIAN CHURCH", "city": "CHARLOTTE", "zone": 3.0, "address": "1500 W ROCKY RIVER RD", "type": "Restricted", "location": "NEWELL PRESBYTERIAN CHURCH - SANCTUARY" }, "geometry": { "type": "Point", "coordinates": [ 1481180.997373551130295, 560907.000097811222076 ] } },
{ "type": "Feature", "properties": { "precno": 133.0, "name": "HUNTERSVILLE UNITED METHODIST CHURCH", "city": "HUNTERSVILLE", "zone": 1.0, "address": "14005 STUMPTOWN RD", "type": "Restricted", "location": "HUNTERSVILLE UNITED METHODIST CHURCH - FELLOWSHIP HALL" }, "geometry": { "type": "Point", "coordinates": [ 1448477.997490972280502, 614498.999868974089622 ] } },
{ "type": "Feature", "properties": { "precno": 134.0, "name": "BRADLEY MIDDLE SCHOOL", "city": "HUNTERSVILLE", "zone": 1.0, "address": "13345 BEATTIES FORD RD", "type": "Campaigning Permitted", "location": "BRADLEY MIDDLE SCHOOL - GYM" }, "geometry": { "type": "Point", "coordinates": [ 1426535.997411802411079, 604889.000060141086578 ] } },
{ "type": "Feature", "properties": { "precno": 135.0, "name": "WINDING SPRINGS ELEMENTARY SCHOOL", "city": "CHARLOTTE", "zone": 3.0, "address": "6601 HORACE MANN RD", "type": "Campaigning Permitted", "location": "WINDING SPRINGS ELEMENTARY SCHOOL - GYM" }, "geometry": { "type": "Point", "coordinates": [ 1454450.997355967760086, 571502.99990314245224 ] } },
{ "type": "Feature", "properties": { "precno": 138.0, "name": "OLYMPIC HIGH SCHOOL", "city": "CHARLOTTE", "zone": 6.0, "address": "4301 SANDY PORTER RD", "type": "Campaigning Permitted", "location": "OLYMPIC HIGH SCHOOL - NEW GYM" }, "geometry": { "type": "Point", "coordinates": [ 1416497.99747471511364, 518155.999970063567162 ] } },
{ "type": "Feature", "properties": { "precno": 140.0, "name": "HARRISON UNITED METHODIST CHURCH", "city": "PINEVILLE", "zone": 10.0, "address": "15008 LANCASTER HWY", "type": "Campaigning Permitted", "location": "HARRISON UNITED METHODIST CHURCH - HAMMILL HALL" }, "geometry": { "type": "Point", "coordinates": [ 1441970.997381642460823, 475369.999912306666374 ] } },
{ "type": "Feature", "properties": { "precno": 142.0, "name": "LAKE NORMAN BAPTIST CHURCH", "city": "HUNTERSVILLE", "zone": 1.0, "address": "7921 SAM FURR RD", "type": "Restricted", "location": "LAKE NORMAN BAPTIST CHURCH - FELLOWSHIP HALL" }, "geometry": { "type": "Point", "coordinates": [ 1436148.997214630246162, 622361.999890983104706 ] } },
{ "type": "Feature", "properties": { "precno": 143.0, "name": "LAKE FOREST COMMUNITY CHURCH", "city": "HUNTERSVILLE", "zone": 1.0, "address": "8519 GILEAD RD", "type": "Restricted", "location": "LAKE FOREST COMMUNITY CHURCH - NEW BUILDING" }, "geometry": { "type": "Point", "coordinates": [ 1438906.997276052832603, 607865.000013649463654 ] } },
{ "type": "Feature", "properties": { "precno": 148.0, "name": "COMMUNITY HOUSE MIDDLE SCHOOL", "city": "CHARLOTTE", "zone": 28277.0, "address": "9500 COMMUNITY HOUSE RD", "type": "Campaigning Permitted", "location": "COMMUNITY HOUSE MIDDLE SCHOOL - MAIN GYM" }, "geometry": { "type": "Point", "coordinates": [ 1454080.997439801692963, 473102.999853149056435 ] } },
{ "type": "Feature", "properties": { "precno": 111.0, "name": "BEVERLY WOODS ELEMENTARY SCHOOL", "city": "CHARLOTTE", "zone": 10.0, "address": "6001 QUAIL HOLLOW RD", "type": "Campaigning Permitted", "location": "BEVERLY WOODS ELEMENTARY SCHOOL - GYM" }, "geometry": { "type": "Point", "coordinates": [ 1450742.997226059436798, 507806.000000804662704 ] } },
{ "type": "Feature", "properties": { "precno": 123.0, "name": "NORTHRIDGE MIDDLE SCHOOL", "city": "CHARLOTTE", "zone": 12.0, "address": "7601 THE PLAZA", "type": "Campaigning Permitted", "location": "NORTHRIDGE MIDDLE SCHOOL - GYM" }, "geometry": { "type": "Point", "coordinates": [ 1483535.997256726026535, 554048.000036314129829 ] } },
{ "type": "Feature", "properties": { "precno": 124.0, "name": "HICKORY GROVE ELEMENTARY SCHOOL", "city": "CHARLOTTE", "zone": 4.0, "address": "6300 HIGHLAND AVE", "type": "Campaigning Permitted", "location": "HICKORY GROVE ELEMENTARY SCHOOL - ANNEX BLDG GYM" }, "geometry": { "type": "Point", "coordinates": [ 1486463.997306227684021, 541711.000104054808617 ] } },
{ "type": "Feature", "properties": { "precno": 125.0, "name": "PINEY GROVE ELEMENTARY SCHOOL", "city": "CHARLOTTE", "zone": 9.0, "address": "8801 EAGLEWIND DR", "type": "Campaigning Permitted", "location": "PINEY GROVE ELEMENTARY SCHOOL - MULTI-PURPOSE ROOM" }, "geometry": { "type": "Point", "coordinates": [ 1482788.997438386082649, 522530.000080317258835 ] } },
{ "type": "Feature", "properties": { "precno": 126.0, "name": "NATHANIEL ALEXANDER ELEMENTARY SCHOOL", "city": "CHARLOTTE", "zone": 3.0, "address": "7910 NEAL RD", "type": "Campaigning Permitted", "location": "NATHANIEL ALEXANDER ELEMENTARY SCHOOL - GYM" }, "geometry": { "type": "Point", "coordinates": [ 1470435.997538134455681, 568405.999863564968109 ] } },
{ "type": "Feature", "properties": { "precno": 139.0, "name": "HAWK RIDGE ELEMENTARY SCHOOL", "city": "CHARLOTTE", "zone": 10.0, "address": "9201 BRYANT FARMS RD", "type": "Campaigning Permitted", "location": "HAWK RIDGE ELEMENTARY SCHOOL - MULTI-PURPOSE ROOM" }, "geometry": { "type": "Point", "coordinates": [ 1453768.997407630085945, 475799.00003856420517 ] } },
{ "type": "Feature", "properties": { "precno": 144.0, "name": "ST MATTHEW CATHOLIC CHURCH", "city": "CHARLOTTE", "zone": 10.0, "address": "8015 BALLANTYNE COMMONS PKWY", "type": "Restricted", "location": "ST MATTHEW CATHOLIC CHURCH - BANQUET ROOM" }, "geometry": { "type": "Point", "coordinates": [ 1457196.997441381216049, 480327.999838814139366 ] } },
{ "type": "Feature", "properties": { "precno": 146.0, "name": "PERFORMANCE LEARNING CENTER", "city": "CHARLOTTE", "zone": 3.0, "address": "2300 W SUGAR CREEK RD", "type": "Campaigning Permitted", "location": "PERFORMANCE LEARNING CENTER" }, "geometry": { "type": "Point", "coordinates": [ 1463958.997368797659874, 567148.000082984566689 ] } },
{ "type": "Feature", "properties": { "precno": 147.0, "name": "E E WADDELL LANGUAGE ACADEMY", "city": "CHARLOTTE", "zone": 28217.0, "address": "7030 NATIONS FORD RD", "type": "Campaigning Permitted", "location": "E E WADDELL LANGUAGE ACADEMY - AUXILIARY GYM" }, "geometry": { "type": "Point", "coordinates": [ 1432075.997486636042595, 516872.999911397695541 ] } },
{ "type": "Feature", "properties": { "precno": 136.0, "name": "CPCC LEVINE CAMPUS", "city": "CHARLOTTE", "zone": 7.0, "address": "2800 CAMPUS RIDGE RD", "type": "Campaigning Permitted", "location": "CPCC LEVINE CAMPUS - CLASSROOM 2300" }, "geometry": { "type": "Point", "coordinates": [ 1493416.997507810592651, 498021.999883815646172 ] } },
{ "type": "Feature", "properties": { "precno": 145.0, "name": "HICKORY GROVE BAPTIST CHURCH NORTH CAMPUS", "city": "CHARLOTTE", "zone": 3.0, "address": "2350 ODELL SCHOOL RD", "type": "Restricted", "location": "HICKORY GROVE BAPTIST CHURCH NORTH CAMPUS - EVENT CENTER" }, "geometry": { "type": "Point", "coordinates": [ 1481830.997385889291763, 591090.000099137425423 ] } },
{ "type": "Feature", "properties": { "precno": 150.0, "name": "MT. ISLAND COMMUNITY CHURCH", "city": "CHARLOTTE", "zone": 28216.0, "address": "4316 MT HOLLY-HUNTERSVILLE RD", "type": "Restricted", "location": "MT. ISLAND COMMUNITY CHURCH - FELLOWSHIP HALL" }, "geometry": { "type": "Point", "coordinates": [ 1422043.997537553310394, 581183.999898061156273 ] } },
{ "type": "Feature", "properties": { "precno": 151.0, "name": "CROFT COMMUNITY SCHOOL", "city": "CHARLOTTE", "zone": 28269.0, "address": "4911 HUCKS RD", "type": "Campaigning Permitted", "location": "CROFT COMMUNITY SCHOOL - GYM" }, "geometry": { "type": "Point", "coordinates": [ 1461670.997351631522179, 585949.999880477786064 ] } },
{ "type": "Feature", "properties": { "precno": 207.0, "name": "HUNTERSVILLE ELEMENTARY SCHOOL", "city": "HUNTERSVILLE", "zone": 1.0, "address": "200 GILEAD RD", "type": "Campaigning Permitted", "location": "HUNTERSVILLE ELEMENTARY SCHOOL - GYM" }, "geometry": { "type": "Point", "coordinates": [ 1449719.997303560376167, 609786.000108644366264 ] } },
{ "type": "Feature", "properties": { "precno": 213.0, "name": "STATESVILLE AVENUE PRESBYTERIAN CHURCH", "city": "CHARLOTTE", "zone": 8.0, "address": "3435 NEVIN RD", "type": "Campaigning Permitted", "location": "STATESVILLE AVENUE PRESBYTERIAN CHURCH - FELLOWSHIP ROOM" }, "geometry": { "type": "Point", "coordinates": [ 1453490.9973074644804, 562935.999976813793182 ] } },
{ "type": "Feature", "properties": { "precno": 211.0, "name": "HORNET'S NEST ELEMENTARY SCHOOL", "city": "CHARLOTTE", "zone": 1.0, "address": "6700 BEATTIES FORD RD", "type": "Campaigning Permitted", "location": "HORNETS NEST ELEMENTARY SCHOOL - GYM" }, "geometry": { "type": "Point", "coordinates": [ 1443662.997278466820717, 578339.000010639429092 ] } },
{ "type": "Feature", "properties": { "precno": 232.0, "name": "SOUTH MECKLENBURG PRESBYTERIAN CHURCH", "city": "CHARLOTTE", "zone": 10.0, "address": "8601 BRYANT FARMS RD", "type": "Restricted", "location": "SOUTH MECKLENBURG PRESBYTERIAN CHURCH - COMMONS" }, "geometry": { "type": "Point", "coordinates": [ 1456016.99750480055809, 476784.000037059187889 ] } },
{ "type": "Feature", "properties": { "precno": 149.0, "name": "JOSEPH W GRIER ACADEMY", "city": "CHARLOTTE", "zone": 28215.0, "address": "8330 GRIER RD", "type": "Campaigning Permitted", "location": "JOSEPH W GRIER ACADEMY - MULTI-PURPOSE ROOM" }, "geometry": { "type": "Point", "coordinates": [ 1484973.997333467006683, 556882.999943733215332 ] } },
{ "type": "Feature", "properties": { "precno": 202.0, "name": "CORNELIUS TOWN HALL", "city": "CORNELIUS", "zone": 1.0, "address": "21445 CATAWBA AVE", "type": "Campaigning Permitted", "location": "CORNELIUS TOWN HALL - COMMUNITY HALL" }, "geometry": { "type": "Point", "coordinates": [ 1446630.997247964143753, 635485.999889642000198 ] } },
{ "type": "Feature", "properties": { "precno": 200.0, "name": "BERRYHILL BAPTIST CHURCH", "city": "CHARLOTTE", "zone": 6.0, "address": "9801 WALKERS FERRY RD", "type": "Restricted", "location": "BERRYHILL BAPTIST CHURCH - FELLOWSHIP HALL" }, "geometry": { "type": "Point", "coordinates": [ 1408109.997518464922905, 541220.000101804733276 ] } },
{ "type": "Feature", "properties": { "precno": 201.0, "name": "J H GUNN ELEMENTARY SCHOOL", "city": "CHARLOTTE", "zone": 4.0, "address": "7400 HARRISBURG RD", "type": "Campaigning Permitted", "location": "J H  GUNN ELEMENTARY SCHOOL -  MULTI PURPOSE ROOM" }, "geometry": { "type": "Point", "coordinates": [ 1496403.997439309954643, 538398.999838307499886 ] } },
{ "type": "Feature", "properties": { "precno": 203.0, "name": "ROBINSON PRESBYTERIAN CHURCH", "city": "CHARLOTTE", "zone": 4.0, "address": "9424 HARRISBURG RD", "type": "Restricted", "location": "ROBINSON PRESBYTERIAN CHURCH - FELLOWSHIP HALL" }, "geometry": { "type": "Point", "coordinates": [ 1501658.997427970170975, 545236.999941810965538 ] } },
{ "type": "Feature", "properties": { "precno": 204.0, "name": "BACK CREEK PRESBYTERIAN CHURCH", "city": "CHARLOTTE", "zone": 3.0, "address": "1821 BACK CREEK CHURCH RD", "type": "Restricted", "location": "BACK CREEK PRESBYTERIAN CHURCH - GYM" }, "geometry": { "type": "Point", "coordinates": [ 1489690.997413888573647, 571948.999995395541191 ] } },
{ "type": "Feature", "properties": { "precno": 205.0, "name": "REEDY CREEK ELEMENTARY SCHOOL", "city": "CHARLOTTE", "zone": 4.0, "address": "10801 PLAZA RD EXT", "type": "Campaigning Permitted", "location": "REEDY CREEK ELEMENTARY SCHOOL - MULTI-PURPOSE ROOM" }, "geometry": { "type": "Point", "coordinates": [ 1497144.997269630432129, 553883.000038221478462 ] } },
{ "type": "Feature", "properties": { "precno": 206.0, "name": "DAVIDSON TOWN HALL", "city": "DAVIDSON", "zone": 1.0, "address": "216 S MAIN ST", "type": "Campaigning Permitted", "location": "DAVIDSON TOWN HALL - MEETING ROOM" }, "geometry": { "type": "Point", "coordinates": [ 1449417.997251391410828, 641368.999934643507004 ] } },
{ "type": "Feature", "properties": { "precno": 208.0, "name": "BETHEL PRESBYTERIAN CHURCH", "city": "CORNELIUS", "zone": 1.0, "address": "19920 BETHEL CHURCH RD", "type": "Restricted", "location": "BETHEL PRESBYTERIAN CHURCH - GYM" }, "geometry": { "type": "Point", "coordinates": [ 1437326.997483298182487, 636340.000150144100189 ] } },
{ "type": "Feature", "properties": { "precno": 209.0, "name": "TRILLIUM SPRINGS MONTESSORI SCHOOL", "city": "HUNTERSVILLE", "zone": 1.0, "address": "9213 BEATTIES FORD RD", "type": "Campaigning Permitted", "location": "TRILLIUM SPRINGS MONTESSORI SCHOOL" }, "geometry": { "type": "Point", "coordinates": [ 1436123.997264638543129, 587434.999863222241402 ] } },
{ "type": "Feature", "properties": { "precno": 210.0, "name": "MCCROREY YMCA", "city": "CHARLOTTE", "zone": 8.0, "address": "3801 BEATTIES FORD RD", "type": "Restricted", "location": "MCCROREY YMCA - GYM" }, "geometry": { "type": "Point", "coordinates": [ 1445209.997465297579765, 564566.999995648860931 ] } },
{ "type": "Feature", "properties": { "precno": 212.0, "name": "OASIS SHRINE TEMPLE", "city": "CHARLOTTE", "zone": 3.0, "address": "604 DOUG MAYES PL", "type": "Campaigning Permitted", "location": "OASIS SHRINE TEMPLE - THE SANDS" }, "geometry": { "type": "Point", "coordinates": [ 1477155.99722146987915, 574163.000160560011864 ] } },
{ "type": "Feature", "properties": { "precno": 215.0, "name": "MATTHEWS COMMUNITY CENTER", "city": "MATTHEWS", "zone": 7.0, "address": "100 E MCDOWELL ST", "type": "Campaigning Permitted", "location": "MATTHEWS COMMUNITY CENTER - COMMUNITY ROOM" }, "geometry": { "type": "Point", "coordinates": [ 1484904.9974714666605, 500579.000019147992134 ] } },
{ "type": "Feature", "properties": { "precno": 216.0, "name": "CROWN POINT ELEMENTARY SCHOOL", "city": "MATTHEWS", "zone": 7.0, "address": "3335 SAM NEWELL RD", "type": "Campaigning Permitted", "location": "CROWN POINT SCHOOL - MULTI-PURPOSE ROOM" }, "geometry": { "type": "Point", "coordinates": [ 1487431.997338727116585, 517582.000133812427521 ] } },
{ "type": "Feature", "properties": { "precno": 217.0, "name": "CHRIST COVENANT CHURCH", "city": "MATTHEWS", "zone": 7.0, "address": "800 FULLWOOD LN", "type": "Restricted", "location": "CHRIST COVENANT CHURCH - WORSHIP CENTER" }, "geometry": { "type": "Point", "coordinates": [ 1482100.997502058744431, 502591.999930143356323 ] } },
{ "type": "Feature", "properties": { "precno": 219.0, "name": "MINT HILL TOWN HALL", "city": "CHARLOTTE", "zone": 4.0, "address": "4430 MINT HILL VILLAGE LN", "type": "Campaigning Permitted", "location": "MINT HILL TOWN HALL - MEETING ROOM" }, "geometry": { "type": "Point", "coordinates": [ 1505525.997239887714386, 523333.000114724040031 ] } },
{ "type": "Feature", "properties": { "precno": 220.0, "name": "MINT HILL MASONIC LODGE #742", "city": "CHARLOTTE", "zone": 4.0, "address": "10224 LAWYERS RD", "type": "Restricted", "location": "MINT HILL MASONIC LODGE #742 - MAIN ROOM" }, "geometry": { "type": "Point", "coordinates": [ 1499978.997507140040398, 523764.999906897544861 ] } },
{ "type": "Feature", "properties": { "precno": 221.0, "name": "PHILADELPHIA PREBYTERIAN CHURCH", "city": "CHARLOTTE", "zone": 4.0, "address": "11501 BAIN SCHOOL RD", "type": "Restricted", "location": "PHILADELPHIA PRESBYTERIAN CHURCH - KERR BUILDING" }, "geometry": { "type": "Point", "coordinates": [ 1507852.997507140040398, 523045.000034555792809 ] } },
{ "type": "Feature", "properties": { "precno": 222.0, "name": "OAKDALE ELEMENTARY SCHOOL", "city": "CHARLOTTE", "zone": 2.0, "address": "1825 OAKDALE RD", "type": "Campaigning Permitted", "location": "OAKDALE ELEMENTARY SCHOOL - MULTI-PURPOSE ROOM" }, "geometry": { "type": "Point", "coordinates": [ 1434027.997519642114639, 569680.999938234686852 ] } },
{ "type": "Feature", "properties": { "precno": 223.0, "name": "COOKS MEMORIAL PRESBYTERIAN CHURCH", "city": "CHARLOTTE", "zone": 2.0, "address": "3413 MT HOLLY-HUNTERSVILLE RD", "type": "Restricted", "location": "COOKS MEMORIAL PRESBYTERIAN CHURCH - FELLOWSHIP HALL" }, "geometry": { "type": "Point", "coordinates": [ 1418708.997317805886269, 578618.000108808279037 ] } },
{ "type": "Feature", "properties": { "precno": 224.0, "name": "GARDEN MEMORIAL PRESBYTERIAN CHURCH", "city": "CHARLOTTE", "zone": 2.0, "address": "2324 SAM WILSON RD", "type": "Restricted", "location": "GARDEN MEMORIAL PRESBYTERIAN CHURCH - FELLOWSHIP HALL" }, "geometry": { "type": "Point", "coordinates": [ 1409274.997485056519508, 555602.999879062175751 ] } },
{ "type": "Feature", "properties": { "precno": 225.0, "name": "BELLE JOHNSTON COMMUNITY CENTER", "city": "PINEVILLE", "zone": 10.0, "address": "1000 JOHNSTON DR", "type": "Campaigning Permitted", "location": "BELLE JOHNSTON COMMUNITY CENTER - GYM" }, "geometry": { "type": "Point", "coordinates": [ 1433722.9974734634161, 488942.999997228384018 ] } },
{ "type": "Feature", "properties": { "precno": 226.0, "name": "MCALPINE ELEMENTARY SCHOOL", "city": "CHARLOTTE", "zone": 10.0, "address": "9100 CARSWELL LN", "type": "Campaigning Permitted", "location": "MCALPINE ELEMENTARY SCHOOL - MULTI-PURPOSE ROOM" }, "geometry": { "type": "Point", "coordinates": [ 1453093.997445300221443, 489741.000041648745537 ] } },
{ "type": "Feature", "properties": { "precno": 227.0, "name": "MCKEE ROAD ELEMENTARY SCHOOL", "city": "CHARLOTTE", "zone": 7.0, "address": "4101 MCKEE RD", "type": "Campaigning Permitted", "location": "MCKEE ROAD ELEMENTARY SCHOOL - MULTI-PURPOSE ROOM" }, "geometry": { "type": "Point", "coordinates": [ 1474930.997406393289566, 484373.999948889017105 ] } },
{ "type": "Feature", "properties": { "precno": 228.0, "name": "KENNEDY MIDDLE SCHOOL", "city": "CHARLOTTE", "zone": 6.0, "address": "4000 GALLANT LN", "type": "Campaigning Permitted", "location": "KENNEDY MIDDLE SCHOOL - GYM" }, "geometry": { "type": "Point", "coordinates": [ 1415394.997384130954742, 516513.999973222613335 ] } },
{ "type": "Feature", "properties": { "precno": 229.0, "name": "CHRIST THE KING LUTHERAN CHURCH", "city": "CHARLOTTE", "zone": 6.0, "address": "13501 S TRYON ST", "type": "Restricted", "location": "CHRIST THE KING LUTHERAN CHURCH - MULTI PURPOSE" }, "geometry": { "type": "Point", "coordinates": [ 1402844.997221723198891, 496523.999927058815956 ] } },
{ "type": "Feature", "properties": { "precno": 230.0, "name": "BEREWICK RECREATION CENTER", "city": "CHARLOTTE", "zone": 6.0, "address": "5910 DIXIE RIVER RD", "type": "Unrestricted", "location": "BEREWICK RECREATION CENTER - MULTI-PURPOSE ROOM" }, "geometry": { "type": "Point", "coordinates": [ 1408649.000705555081367, 524036.000677227973938 ] } },
{ "type": "Feature", "properties": { "precno": 231.0, "name": "PINEVILLE UNITED METHODIST CHURCH", "city": "PINEVILLE", "zone": 10.0, "address": "110 S POLK ST", "type": "Restricted", "location": "PINEVILLE UNITED METHODIST CHURCH - FELLOWSHIP BUILDING" }, "geometry": { "type": "Point", "coordinates": [ 1435433.99733230471611, 490946.999926224350929 ] } },
{ "type": "Feature", "properties": { "precno": 233.0, "name": "ELIZABETH LANE ELEMENTARY SCHOOL", "city": "MATTHEWS", "zone": 7.0, "address": "121 ELIZABETH LN", "type": "Campaigning Permitted", "location": "ELIZABETH LANE ELEMENTARY SCHOOL - MULTI-PURPOSE ROOM" }, "geometry": { "type": "Point", "coordinates": [ 1477466.997255638241768, 500429.999989062547684 ] } },
{ "type": "Feature", "properties": { "precno": 137.0, "name": "POLO RIDGE ELEMENTARY", "city": "CHARLOTTE", "zone": 10.0, "address": "11830 TOM SHORT RD", "type": "Unrestricted", "location": "POLO RIDGE ELEMENTARY - GYMNASIUM" }, "geometry": { "type": "Point", "coordinates": [ 1462872.999868884682655, 476755.000095054507256 ] } },
{ "type": "Feature", "properties": { "precno": 239.0, "name": "MALLARD CREEK RECREATION CENTER", "city": "CHARLOTTE", "zone": 3.0, "address": "2530 JOHNSTON OEHLER RD", "type": "Campaigning Permitted", "location": "MALLARD CREEK RECREATION CENTER - GYM" }, "geometry": { "type": "Point", "coordinates": [ 1475344.997234553098679, 589515.999966308474541 ] } },
{ "type": "Feature", "properties": { "precno": 41.0, "name": "HOSKINS AVENUE BAPTIST CHURCH", "city": "CHARLOTTE", "zone": 2.0, "address": "101 S HOSKINS RD", "type": "Restricted", "location": "HOSKINS AVENUE BAPTIST CHURCH - FELLOWSHIP HALL" }, "geometry": { "type": "Point", "coordinates": [ 1437533.997397392988205, 556588.99987556040287 ] } },
{ "type": "Feature", "properties": { "precno": 101.0, "name": "CARMEL PLACE", "city": "CHARLOTTE", "zone": 10.0, "address": "5512 CARMEL RD", "type": "Restricted", "location": "CARMEL PLACE - ACTIVITY ROOM" }, "geometry": { "type": "Point", "coordinates": [ 1450195.997335806488991, 497173.999939396977425 ] } },
{ "type": "Feature", "properties": { "precno": 128.0, "name": "MALLARD CREEK ELEMENTARY SCHOOL", "city": "CHARLOTTE", "zone": 3.0, "address": "9801 MALLARD CREEK RD", "type": "Campaigning Permitted", "location": "MALLARD CREEK ELEMENTARY SCHOOL - GYM" }, "geometry": { "type": "Point", "coordinates": [ 1470912.997240304946899, 581734.000110387802124 ] } },
{ "type": "Feature", "properties": { "precno": 4.0, "name": "GATEWAY BAPTIST CHURCH", "city": "CHARLOTTE", "zone": 12.0, "address": "6321 ROBINSON CHURCH RD", "type": "Partially Restricted/No Signs", "location": "GATEWAY BAPTIST CHURCH - FELLOWSHIP HALL" }, "geometry": { "type": "Point", "coordinates": [ 1484493.999933883547783, 543737.999987065792084 ] } },
{ "type": "Feature", "properties": { "precno": 141.0, "name": "UNIVERSITY CITY REGIONAL LIBRARY", "city": "CHARLOTTE", "zone": 3.0, "address": "301 E W T HARRIS BLVD", "type": "Campaigning Permitted", "location": "UNIVERSITY CITY REGIONAL LIBRARY - COMMUNITY ROOM" }, "geometry": { "type": "Point", "coordinates": [ 1478897.997346386313438, 569755.000118315219879 ] } },
{ "type": "Feature", "properties": { "precno": 240.0, "name": "COMMUNITY IN CHRIST LUTHERAN CHURCH", "city": "CORNELIUS", "zone": 1.0, "address": "7621 NORMAN ISLAND DR", "type": "Restricted", "location": "COMMUNITY IN CHRIST LUTHERAN CHURCH - FELLOWSHIP HALL" }, "geometry": { "type": "Point", "coordinates": [ 1435609.997308388352394, 622326.999960973858833 ] } },
{ "type": "Feature", "properties": { "precno": 214.0, "name": "UNIVERSITY CITY UNITED METHODIST CHURCH", "city": "CHARLOTTE", "zone": 3.0, "address": "3835 W W T HARRIS BLVD", "type": "Restricted", "location": "UNIVERSITY CITY UNITED METHODIST CHURCH - FELLOWSHIP HALL" }, "geometry": { "type": "Point", "coordinates": [ 1463906.997472807765007, 580367.999889642000198 ] } },
{ "type": "Feature", "properties": { "precno": 218.0, "name": "MT HARMONY BAPTIST CHURCH", "city": "MATTHEWS", "zone": 7.0, "address": "2817 MT HARMONY CHURCH RD", "type": "Restricted", "location": "MT HARMONY BAPTIST CHURCH - FELLOWSHIP HALL" }, "geometry": { "type": "Point", "coordinates": [ 1499262.997298717498779, 501706.000061720609665 ] } },
{ "type": "Feature", "properties": { "precno": 234.0, "name": "NORTHEAST MIDDLE SCHOOL", "city": "CHARLOTTE", "zone": 4.0, "address": "5960 BRICKSTONE DR", "type": "Campaigning Permitted", "location": "NORTHEAST MIDDLE SCHOOL -  GYM" }, "geometry": { "type": "Point", "coordinates": [ 1494582.997472390532494, 531327.999872729182243 ] } },
{ "type": "Feature", "properties": { "precno": 235.0, "name": "LEBANON ROAD ELEMENTARY SCHOOL", "city": "CHARLOTTE", "zone": 4.0, "address": "7300 LEBANON RD", "type": "Campaigning Permitted", "location": "LEBANON ROAD ELEMENTARY SCHOOL - GYM" }, "geometry": { "type": "Point", "coordinates": [ 1495224.997500717639923, 526227.99990214407444 ] } },
{ "type": "Feature", "properties": { "precno": 236.0, "name": "BLAIR ROAD UNITED METHODIST CHURCH", "city": "CHARLOTTE", "zone": 4.0, "address": "9135 BLAIR RD", "type": "Restricted", "location": "BLAIR ROAD UNITED METHODIST CHURCH - FAMILY LIFE CENTER" }, "geometry": { "type": "Point", "coordinates": [ 1510456.997220382094383, 529689.999867901206017 ] } },
{ "type": "Feature", "properties": { "precno": 237.0, "name": "UNIVERSITY MEADOWS ELEMENTARY SCHOOL", "city": "CHARLOTTE", "zone": 3.0, "address": "1600 PAVILION BLVD", "type": "Campaigning Permitted", "location": "UNIVERSITY MEADOWS ELEMENTARY SCHOOL - GYM" }, "geometry": { "type": "Point", "coordinates": [ 1488565.997367307543755, 574153.999850481748581 ] } },
{ "type": "Feature", "properties": { "precno": 238.0, "name": "DAVID COX ROAD ELEMENTARY SCHOOL", "city": "CHARLOTTE", "zone": 3.0, "address": "4215 DAVID COX RD", "type": "Campaigning Permitted", "location": "DAVID COX ROAD ELEMENTARY SCHOOL - MULTI-PURPOSE ROOM" }, "geometry": { "type": "Point", "coordinates": [ 1462941.997434303164482, 582290.999980643391609 ] } },
{ "type": "Feature", "properties": { "precno": 241.0, "name": "J M ALEXANDER MIDDLE SCHOOL", "city": "HUNTERSVILLE", "zone": 1.0, "address": "12201 HAMBRIGHT RD", "type": "Campaigning Permitted", "location": "J M ALEXANDER MIDDLE SCHOOL - MULTI-PURPOSE ROOM" }, "geometry": { "type": "Point", "coordinates": [ 1452881.997213140130043, 597811.000108554959297 ] } },
{ "type": "Feature", "properties": { "precno": 242.0, "name": "JETTON PARK", "city": "CORNELIUS", "zone": 1.0, "address": "19000 JETTON RD", "type": "Campaigning Permitted", "location": "JETTON PARK - WATERFRONT HALL" }, "geometry": { "type": "Point", "coordinates": [ 1434769.997347965836525, 633478.999966651201248 ] } },
{ "type": "Feature", "properties": { "precno": 243.0, "name": "PLEASANT HILL PRESBYTERIAN CHURCH", "city": "CHARLOTTE", "zone": 6.0, "address": "15000 YORK RD", "type": "Restricted", "location": "PLEASANT HILL PRESBYTERIAN CHURCH - GYM" }, "geometry": { "type": "Point", "coordinates": [ 1395583.997308060526848, 495459.000088557600975 ] } }
]
}
